town,riverName,station,typicalRangeHigh,lat,typicalRangeLow,lon,label
Little Rissington,Dikler,1029TH,0.347,51.874767,0.068,-1.740083,Bourton Dickler
Surfleet Seas End,River Glen,E2043,0.895,52.845991,0.15,-0.100848,Surfleet Sluice
Kingsbury Episcopi,River Parrett,52119,0.971,50.976043,0.231,-2.793549,Gaw Bridge
Hemingford Grey,River Ouse,E21136,0.32,52.323618,0.141,-0.101287,Hemingford
Swindon,Smestow Brook,2067,1.336,52.51274,1.044,-2.205945,Swindon
Penryn,Praze Stream,48143,1.56,50.172659,0.81,-5.109416,Penryn Trelawney Park
Bilsborrow,Brock,720215,1,53.858854,0.103,-2.743276,A6 Bridge
West Grinstead,Adur,E9250,0.95,50.965045,0.046,-0.323238,Hatterell Bridge
Netherside Hall,River Wharfe,F1906,3,54.080705,0.3,-2.024779,Netherside Hall
Ardingly,Ouse [So],E8266,0.6,51.038451,0.12,-0.100268,Ardingly
Letcombe Regis,Letcombe Brook,1771TH,0.099,51.571482,0.02,-1.449342,Letcombe Regis
Winterbourne,Bradley Brook,531118,0.464,51.521892,0.03,-2.521122,Bradley Bridge
Lovington,River Brue,52207,1.9,51.083697,0.078,-2.586936,Lovington
Goulceby,Bain,E1147,0.35,53.296901,0.019,-0.131922,Goulceby
Northern Moor,Baguley Brook,693115,0.267,53.407591,0.099,-2.294665,Northern Moor
Manchester,Irk,690611,0.287,53.493682,0.12,-2.229815,Collyhurst Weir
Haslingfield,River Rhee,E21720,0.4,52.151539,0.074,0.067146,Haslingfield Burnt Mill
Pinner,Pinn,2804TH,1,51.589297,0.288,-0.381167,"Pinner, Eastcote Road"
Pickering,Pickering Beck,L2517,1,54.246819,0.02,-0.777611,Pickering
Chineham,Petty's Brook,2406TH,1.25,51.296962,0.258,-1.056426,Chineham
Leagrave,Lee (Upper),4615TH,0.9,51.908463,0.015,-0.46427,"Luton, Toddington Road"
Salisbury,River Avon,43165,0.48,51.076527,0.103,-1.803528,Salisbury Ashley Road
Yeaton,River Perry,2020,0.7,52.76777,0.106,-2.839715,Yeaton
Kingston Upon Thames,Thames,3400TH,5,51.415005,3.49,-0.308869,Kingston
Addingham,River Wharfe,L1931,1,53.944393,0.086,-1.886441,"Addingham, Town Beck"
Standlake,Windrush,1090_w2TH,0.349,51.713499,0.004,-1.420988,Newbridge Weir B
Litton Cheney,Litton Cheney Stream,44112,0.5,50.710758,0.094,-2.638832,Litton Cheney
Redesmouth,River Rede,023008,2,55.142955,0.205,-2.208614,Rede Bridge
Rochdale,Rochdale ETW,690203,1.23,53.611067,0.098,-2.178685,Rochdale ETW
Elkesley,River Poulter,4036,1.42,53.26962,0.162,-0.952008,Twyford Bridge
Harbertonford,River Harbourne,46128,0.496,50.393426,0.023,-3.73051,Rolster Bridge
Bragbury End,Stevenage Brook,4827TH,0.65,51.874477,0.053,-0.149495,Bragbury Park
Lugwardine,Lugg,055003_TG 316,2.4,52.061919,0.153,-2.659977,Lugwardine
Ryther,River Wharfe,L2011,6.5,53.851463,2,-1.157804,Fleet Pumping Station
Darfield,River Dearne,L08015,3.06,53.536358,0.331,-1.366253,Darfield Bridge
Stroud,Slad Brook,2206,0.35,51.746918,0.21,-2.217953,Merrywalks
Great Glen,River Sence (Soar),4161,1.22,52.574167,0.77,-1.035067,Great Glen
Prestbury,Bollin,693426,1.26,53.289231,0.247,-2.148611,Prestbury
"Victoria Bridge, Kendal",River Kent,730506,1.578,54.330571,1.032,-2.742287,Victoria Bridge - New
Bitton,River Boyd,53131,0.399,51.426965,0.108,-2.459703,Bitton
Wimborne Minster,River Allen,43216,0.546,50.805852,0.092,-1.990007,Walford Mill
Dawlish,Dawlish Water,45171,0.334,50.580497,0.123,-3.472207,Dawlish
Sudbury,River Dove,4124,1.555,52.877141,0.384,-1.759128,Aston Bridge
Claypole,Upper Witham - South,E2901,0.62,53.022669,0.11,-0.746145,Claypole
Little Alne,River Alne,2095,1.329,52.247533,0.897,-1.793996,Little Alne
Alwinton,River Coquet,022014,1.6,55.343453,0.223,-2.124525,Alwinton Bridge
Heacham,Heacham River,E21127,0.133,52.908305,0.02,0.504442,Heacham
Rewe,River Culm,45134,1.154,50.782406,0.239,-3.496159,Rewe
Kirkburton,Dean Bottom Beck,L1115,0.72,53.609746,0.012,-1.703248,Kirkburton Riley Lane
Brigg,Ancholme,E2790,2.38,53.550068,0.482,-0.501979,Brigg
North America,Market Weighton Canel,L3404,1.5,53.7781,-0.518,-0.713178,North America
Romanby,Willow Beck,L2322,1.2,54.336424,0.029,-1.45074,Romanby
Hungerford,River Shalbourne,2241TH,0.21,51.412847,0.043,-1.526019,Hungerford Shalbourne
Temple Sowerby,Eden,760502,3.3,54.648336,0.2,-2.614388,Temple Sowerby
Colden Common,Itchen,E12442,0.75,50.990287,0.259,-1.335564,Highbridge weir
Walthamstow,Lee (Lower),5380TH,1,51.574894,0.014,-0.043637,"Walthamstow, Low Hall"
Carlisle,Caldew,765045,2.7,54.885739,0.013,-2.937513,Denton Holme
Sinnington,River Seven,L2545,1.3,54.262449,0.102,-0.859287,Sinnington
Worsbrough,River Dove,F0815,0.295,53.526193,0.08,-1.473913,Worsbrough
Hall Dunnerdale,Duddon,740101,1.5,54.341859,0.244,-3.218047,Ulpha
Sleaford,Slea,E4411,0.382,52.998853,0.244,-0.408576,Slea Tilting Gate
Bristol Harbour Passage Street,Bristol Frome,531109,0.205,51.45411,0.075,-2.586653,Bristol Harbour Passage Street
Copley,River Calder,L1203,3.8,53.69804,1.68,-1.873139,Copley Bridge
Denham,Colne,2870TH,0.4,51.56631,0.11,-0.483905,Denham Colne
Lenton,River Leen,4435,1,52.948176,0.08,-1.183337,Lenton
Worcester,River Severn,2642,3.35,52.206967,0.548,-2.235272,Worcester (Barbourne)
Allendale Town,River East Allen,023036,1.8,54.903814,0.157,-2.265076,Allen Mill Bridge
,,47140,unknown,50.69694838741934,unknown,-4.511858769507271,CANWORTHY WATER BRIDGE
Scotter,River Eau,4064,1.75,53.498488,0.094,-0.664311,Scotter
Eamont Bridge,River Eamont,761659,1.7,54.651055,0.35,-2.743236,Eamont Bridge Farm
Salwarpe,River Salwarpe,2011,2,52.255374,0.189,-2.193909,Harford Hill
Mitchell Wyke Ferry Bay,Lake Windermere,735225,0.993,54.352722,0.228,-2.940028,Far Sawrey
Kirk Hammerton,River Nidd,F2102,2.36,53.998678,0.218,-1.266199,Skip Bridge
St Michael's On Wyre,Wyre,720517,4.1,53.863761,0.4,-2.817872,St Michaels
Laverstock,River Bourne,43119,0.568,51.072524,0.097,-1.77754,Laverstock
Chingford,Ching Brook,5376TH,0.75,51.619051,0.151,0.008836,Chingford
Neatishead,River Ant,E21563,0.75,52.735281,0.25,1.480458,Barton Broad
Bridge Trafford,Gowy,684027,1,53.234132,0.196,-2.827991,Bridge Trafford
Loddiswell,River Avon,46119,0.889,50.31395,0.246,-3.800717,Loddiswell
Scayne's Hill,Ouse [So],E8210,2,51.002867,0.01,-0.027718,Freshfield Bridge
Killamarsh,River Rother,L0307,1.48,53.326718,0,-1.328824,Killamarsh
Appledore,North Devon Coast,50122,unknown,51.052481,unknown,-4.190446,Appledore
Staines,Wraysbury River,2896TH,1.3,51.43615,0.059,-0.514892,"Stains, Pounds Mill"
Filgrave,River Ouse,E60601,1.865,52.129553,1.125,-0.753104,Ravenstone Mill Sluice
Trowbridge,River Biss,53122,1.8,51.31742,0.164,-2.206553,Trowbridge
Alton,Caker Stream,3015TH,0.249,51.140148,0,-0.959908,Caker Stream
Islip,Nene (Wollaston-Wansford),E2062,1.845,52.401841,0.675,-0.5448,Islip Sluice
Aldington,East Stour Trib  Great Stour,E4351,1.732,51.105167,0.008,0.948046,Aldington Upstream
Abingdon,Ock,1681TH,1.5,51.683092,0.45,-1.268125,Abingdon Peachcroft
Milton On Stour,Shreen Water,43207,0.75,51.049578,0.099,-2.276018,Colesbrook
Mansfield,River Maun,4115,1,53.166753,0.246,-1.164236,Mansfield The Dykes
Broadclyst,River Clyst,45162,0.762,50.752006,0.099,-3.454461,Withy Bridge
Bransford,River Teme,2086,4.4,52.177055,0.363,-2.28833,Bransford
Dodford,Nene - Whitton Branch,E2285,1.18,52.240918,0.025,-1.083171,Dodford
Queenborough,Medway,E2900,unknown,51.415798,unknown,0.742491,Queenborough
Winchester,Itchen,E12470,0.81,51.0582,0.319,-1.308338,Wharf Mill
St Erth,River Hayle,48125,0.8,50.156881,0.237,-5.432918,St Erth
Thirsk,Cod Beck,L2313,2,54.235258,0.174,-1.341973,Thirsk
Castleton,River Esk,L2907,2,54.466168,0.01,-0.944968,Castleton
Bredbury,Tame,692423,0.422,53.42353,0.104,-2.141405,Portwood
Ilfracombe,East Wilder Brook,50197,0.249,51.196412,0.033,-4.120133,Ilfracombe Lambda
Newburgh,Douglas,700306,2.5,53.607043,0.294,-2.793103,Wanes Blades
Bulwell,River Leen,4203,1.1,53.009557,0.238,-1.190048,Bulwell
Hebden Bridge,Hebden Water,L1231,0.97,53.744763,0.1,-2.010569,Nutclough
Haydon Wick,Ray (Wilts),0319TH,0.531,51.571821,0.034,-1.816698,Rodbourne
Edgware,Silk Stream,3826TH,2,51.607093,0.61,-0.271414,Edgware Hospital
Sawbridgeworth,Stort,5151TH,1.45,51.812151,0.939,0.158674,Sawbridgeworth
Witham Friary,Somerset Frome,53197,0.379,51.169425,0,-2.364153,Witham Friary
Stanstead,River Glem,E22548,1.04,52.09308,0.063,0.693213,Glemsford
Bridge End,South Forty Foot,E1662,2.59,52.90501,0.081,-0.255888,Donington Bridge
Gloucester,Twyver,2670,0.042,51.848419,-0.006,-2.217412,Saintbridge
Chartham,Great Stour,E3951,1,51.257785,0.151,1.030079,Horton weir
Barnsley,River Dearne,F0806,1,53.560696,0.142,-1.473078,Barnsley
Kingsnorth,White Water Dyke Tributary  East Stour,E4402,0.338,51.121217,0.012,0.85627,White Water Dyke
Catford,Pool River,4369TH,0.75,51.435695,0.071,-0.027404,Winsford Road
East Budleigh,Budleigh Brook,45213,0.666,50.652217,0.496,-3.320001,East Budleigh
Oulton Broad,River Waveney,E24823,1.31,52.474903,-0.23,1.71041,Oulton Broad
Washford,Washford River,51107,0.8,51.14633,0.15,-3.373795,Beggearn Huish
Beaminster,River Brit,44131,0.62,50.807196,0.2,-2.739279,Beaminster
Abingdon,Ock,1790TH,0.8,51.666656,0,-1.305189,Abingdon
Haltwhistle,River Tyne,023027,1.096,54.967781,0.166,-2.460104,Haltwhistle
Bridge Rule,Tamar,47131,2.3,50.799229,0.146,-4.450269,Bridge Rule
Windley,River Ecclesbourne,4055,0.9,52.998306,0.142,-1.525391,Duffield
New Alresford,Cheriton Stream,E12781,0.6,51.086429,0.125,-1.181847,Sewards Bridge
Evesham,River Avon,2002,1.9,52.092165,0.46,-1.942876,Evesham
Butts Bridge,Lugg,055021_TG 305,2.6,52.226571,0.763,-2.730348,Butts Bridge
Evedon,Slea,E1750,0.554,53.022732,0.038,-0.379369,Leasingham Mill
Cockfield,River Brett,E21058,0.75,52.135453,0.015,0.794489,Cockfield
Beetham,River Bela,731013,0.669,54.218531,0.195,-2.774107,Beetham Weir
Crookham Village,Hart,2455TH,1.15,51.262934,0.358,-0.867562,Crookham Village
Rolleston On Dove,River Dove,4018,1.75,52.855534,0.492,-1.648727,Marston on Dove
Brendon,East Lyn River,50150,1.668,51.219143,1.202,-3.751991,Brendon
Evenlode,Evenlode,1210TH,1.17,51.95095,0.405,-1.679842,Evenlode Bridge
Gloucester,Daniels Brook,2225,0.162,51.832287,0,-2.270144,Bodiam Avenue
Bray,Thames,2607TH,0.314,51.509305,0.096,-0.69032,Bray Lock
Beacon End,River Colne,E22761,1.54,51.89895,0.1,0.851031,Lexden
Farnworth,Croal,690408,0.7,53.557357,0.07,-2.388815,Farnworth
North Wootton,Babingley River,E21183,3.448,51.898975,0.028,0.358984,Kilham's Bridge
Leek,River Churnet,4143,0.505,53.1201,0.183,-2.012802,Leek
Cononley,River Aire,L1505,1.064,53.918229,-0.033,-2.007569,Cononley
Waltham Abbey,Cobbins Brook,5329TH,0.8,51.681471,0.066,0.004958,"Waltham Abbey, Sewardstone Road"
St Blazey,St Blazey Stream,48190,0.75,50.361418,0.107,-4.715659,St Blazey Station Road
Stamford,Welland (Stamford - Peakirk),E2647,0.344,52.654318,0,-0.461033,Hudds Mill
St Ives,River Ouse,E24267,0.355,52.317315,0.136,-0.072946,St Ives
Shrewsbury,River Severn,2077,2.7,52.709797,0.422,-2.75808,Welsh Bridge
Navestock Heath,Roding,5442TH,1.8,51.661693,0.271,0.209122,Shonks Mill Bridge
Threlkeld,Glendermackin,750504,2,54.613784,0.5,-3.050496,Threlkeld
Colney Street,Ver,2819TH,0.5,51.704664,0.064,-0.336052,Colney Street
Trengune,Ottery,47169,1,50.710701,0.112,-4.56631,Trengune
Chertsey,Thames,2902TH,0.402,51.390617,0.131,-0.48637,Chertsey Lock
Exeter,River Exe,45116,1.056,50.734613,0,-3.547352,Exwick
Hedon Westlands Drain,Alverthorpe Beck,L1357,0.45,53.681612,0.04,-1.517112,Wakefield Henry Street Br
Ladock,Tresillian River,48116,0.85,50.321143,0.03,-4.961751,Ladock
Partney,Lymn & Steeping,E1788,0.74,53.187011,0.017,0.096794,Partney
Levisham,Levisham Beck,F25110,0.27,54.299848,0.042,-0.717923,Levisham Mill
Maunby,River Swale,L2304,unknown,54.270085,unknown,-1.467898,Maunby
Tixover,Welland (Rockingham - Stamford),E2141,2.345,52.587333,0.154,-0.568186,Tixover
Reading,Thames,2200TH,6.787,51.461325,6.579,-0.967884,Reading
Croft-on-Tees,River Tees,L3609,5,54.483499,0.321,-1.553528,Croft
Whittonditch,Kennet,2230TH,0.431,51.437409,0.077,-1.576981,Knighton Main
Gloucester,River Severn,2165,3.2,51.864982,0.437,-2.252201,Gloucester (Severn)
Pentlow,River Stour,E22539,1.6,52.085266,0.104,0.665897,Westmill
Nelson,River Calder,712130,1.8,53.836305,0.167,-2.232297,Lomeshaye
Old Whittington,River Rother,F0203,1.5,53.266027,0.225,-1.410737,Whittington
Gloucester,Horsbere Brook,2661,0.356,51.840037,0.113,-2.142115,Witcombe
Horley,Gatwick Stream,3229TH,1.2,51.160212,0.075,-0.163604,Gatwick Link
Gargrave,River Aire,F1508,0.6,53.982002,0.132,-2.097548,Gargrave
Radcliffe,Pioneer Mills,690250,2.7,53.561524,0.362,-2.316991,Pioneer Mills
Kennington,Thames,1501TH,0.222,51.72955,0.003,-1.239792,Iffley Lock
Bredon,River Avon,2128,2,52.03494,0.651,-2.116566,Bredon
Meaford,River Trent,4083,1.486,52.916247,0.471,-2.171867,Darlaston
Diss,River Waveney,E24814,0.95,52.371419,0,1.099743,Diss
Shuthonger,Ripple Brook,2624,1.988,52.013101,0.58,-2.175315,Shuthonger
Bridport,River Asker,44122,0.324,50.731934,0.137,-2.752192,East Bridge Bridport
Woolsington,Ouse Burn,023018,1.3,55.023243,0.031,-1.696521,Woolsington
Buckland Monachorum,River Tavy,47122,1.8,50.493456,0.161,-4.149573,Denham Ludbrook
Thorpe,Chertsey Bourne,2928TH,1.06,51.402823,0.4,-0.539779,Chertsey Bourne
Ilam,River Dove,4046,0.59,53.055864,0.271,-1.782274,Izaak Walton
"Botcherby, Carlisle",River Petteril,764070,0.933,54.89341,0.493,-2.910796,"Botcherby Bridge, Carlisle"
Kingthorpe,Stainfield Beck,E1245,0.69,53.250167,0.03,-0.313829,Stainfield Beck
Horncastle,Waring,E1839,0.68,53.208433,0.032,-0.108817,Horncastle Banks Road
Holme Pierrepont,River Trent,4009,3.6,52.952707,1.014,-1.07772,Colwick
Edenbridge,Eden Tributary  Medway,E1110,2.75,51.194078,0.251,0.065165,Edenbridge
Castle Howe,Lake Bassenthwaite,751020,2.072,54.666243,0.661,-3.236916,Castle Howe
Frampton Cotterell,Bristol Frome,53141,0.346,51.537816,0.032,-2.481077,Frampton Cotterell
Ewen,Thames,0130TH,0.726,51.674733,0,-1.9904,Ewen
Hothfield,Great Stour,E4370,1.65,51.171609,0.077,0.799508,Brown Mill
Othery,Sowy,52157,4.045,51.079805,2.762,-2.869413,Beerwall Upstream
Gillingham,River Stour,43226,1.05,51.037252,0.288,-2.278768,Gillingham Le Neubourg Way
Kirklinton,Lyne,770302,2.4,54.986798,0.22,-2.920411,Cliff Bridge
Beddington,Wandle,4150TH,1.4,51.373583,0.065,-0.138986,Beddington Park
Boynton,River Gypsey Race,F3004,0.6,54.093099,0,-0.263772,Boynton
Cricklade,Thames,0190TH,0.883,51.646694,0.058,-1.865536,Cricklade
Sandling,Medway,E581,0.5,51.291026,0.093,0.511282,Allington Marina
Sheffield,Porter Brook,L0414,0.3,53.367798,0.008,-1.521432,Sheffield Oakbrook Road
West Drayton,Colne,2885TH,0.9,51.500923,0.389,-0.482762,West Drayton
Bampton Grange,River Lowther,761260,0.906,54.555577,0.277,-2.743431,Bampton Grange
Arlesey,Hiz,E22344,0.261,52.026751,0.13,-0.266941,Arlesey
Hovingham,Hovingham Beck,L2592,0.45,54.173347,0.044,-0.984145,Hovingham
Wigan,Douglas,700325,1.1,53.54925,0.094,-2.625999,Wigan
Bures,River Stour,E21856,1.43,51.972195,-0.002,0.774544,Bures Bridge
Mithian,Perrancombe Stream,48107,1.2,50.311991,0.149,-5.166154,Rose in Vale
Bruton,River Brue,52208,1.509,51.116056,0.27,-2.430837,Bruton Dam
Bishops Hull,Halsewater,52110,0.589,51.021033,0.197,-3.132608,Halsewater
North Middleton,Wooler Water,021030,1.2,55.516937,0.035,-2.004716,Coldgate Mill
Cheltenham,Hatherley Brook,2652,0.49,51.891766,0.13,-2.103713,Shelburne Road
Moreton,Birket,685513,1.188,53.411889,0.408,-3.088778,Davis Road
Finchley,Mutton Brook,3815TH,1.891,51.584844,0.799,-0.180888,Hampstead Suburb
Crowhurst,Cuckmere,E7050,5.6,50.878052,5.05,0.500069,Crowhurst
Kegworth,River Soar,4074,1.006,52.831898,0.412,-1.273539,Kegworth
Brigsley,Waithe Beck,E1013,0.6,53.496174,0.066,-0.11262,Brigsley
Bourn,Bourn Brook,E24805,0.496,52.192643,0.222,-0.064443,Bourn Brook
Keswick,Greta,750806,1.6,54.608017,0.39,-3.107571,Low Briery
Bidford on Avon,River Avon,2615,2.6,52.164097,0.955,-1.857348,Bidford on Avon
Wytham,Thames,1302TH,0.171,51.776669,0.05,-1.298428,Godstow Lock
Upwey,Wey,44113,0.26,50.665978,0,-2.480781,Upwey Culvert
Swallowfield,Blackwater,2469_w1TH,0.633,51.377564,0.189,-0.952526,Swallowfield
Alston,River South Tyne,023009,1.9,54.812531,0.155,-2.443415,Alston
Waltham Cross,Theobalds Brook,5322TH,0.9,51.691657,0.381,-0.027263,"Cheshunt, Trinity Lane"
Bamford,River Derwent,4037,3.2,53.335557,0.777,-1.683843,Mytham Bridge
Boultham,Lincoln Drainage Area,E2814,2.96,53.221702,0.115,-0.541127,Lincoln Monson Street
Bickington,River Lemon,46129,0.688,50.539272,0.381,-3.702255,Bickington
Northolt,Yeading Brook East,3629TH,0.5,51.548783,0.033,-0.397836,"Northholt, Yeading East"
St Breward,De Lank River,49129,0.692,50.558795,0.109,-4.637796,De Lank
Burrington,River Taw,50132,1.201,50.939901,0.207,-3.907581,Newnham Bridge
Thame,Thame,1961TH,2.373,51.753138,1.057,-0.982253,Thame Bridge
,,730507,unknown,54.33070780472915,unknown,-2.743458416810865,Victoria Bridge
Tytherton Lucas,River Marden,53132,1.104,51.455821,0.401,-2.065573,Stanley
Wincanton,River Cale,43217,1.28,51.048996,0.009,-2.41251,Wincanton
Stainfield,Witham,E2902,0.9,53.226658,0.088,-0.368683,Fiskerton Sluice
Helston,Cober,48172,1.4,50.100002,0.232,-5.279794,Helston County Bridge
Middleton,River Wansbeck,022015,1.81,55.151974,0.064,-1.914757,Middleton Bridge
Wennington,Wenning,724326,0.794,54.125115,0.16,-2.589971,Wennington
Sheffield,River Sheaf,L0405,0.64,53.351518,-0.007,-1.484238,Sheffield Centenary Works
Cheshunt,Small River Lee,5318TH,1.8,51.703222,0.366,-0.022505,"Cheshunt, Windmill Lane"
Tiverton,River Exe,45135,1.407,50.883029,0.103,-3.489856,Tiverton
North America,Batley Beck,L1376,2,53.71811,0.129,-1.638949,Batley Carlinghow  (up stream)
Westminster,Thames Tideway,0006,unknown,51.501216,unknown,-0.12385,Westminster
Little Bollington,Bollin,693515,0.714,53.380045,0.255,-2.406589,Bollington Mill
Middlesborough,River Tees,L3901,unknown,54.603816,unknown,-1.16076,Tees Dock
Northallerton,Willow Beck,L2323,1,54.339341,0.225,-1.440104,Northallerton
Radlett,Radlett Brook,2808TH,1.1,51.682315,0.3,-0.315607,Radlett
Grendon Underwood,Ray(Oxon),1471TH,0.375,51.884491,0.008,-1.012852,Grendon Underwood
Higher Wincham,Wincham Brook,681213,1.164,53.277575,0.209,-2.455855,Lostock Gralam
Sowerby Bridge,Ryburn,L1241,unknown,53.70594,unknown,-1.91329,Sowerby Bridge Scar Head Road
Wanborough,Dorcan Brook,0712TH,2.2,51.563545,0.782,-1.722961,Kestrel Drive
Lincoln,Fosdyke Canal,E1672,1.9,53.23087,1.272,-0.555797,Fosdyke Jetty
Trowlock Island,Thames,3404TH,4.85,51.423993,4.419,-0.308538,Trowlock Island
Beckfoot,Duddon,740102,1.45,54.295374,0.11,-3.237418,Duddon Hall
Silloth Docks,Irish Sea,755900,unknown,54.868007,unknown,-3.394362,Silloth Docks
Park Farm,Old Mill Stream Tributary  East Stour,E4412,1.64,51.133674,0.892,0.880127,Aylesford Stream
Medbourne,Medbourne Brook,E2717,0.289,52.537116,0.015,-0.824895,Medbourne
Mytholmroyd,River Calder,L1204,2.1,53.73128,0.434,-1.983282,Mytholmroyd
Sprouston,Tweed,021021,1.63,55.61121,0.38,-2.395446,Sprouston
Kingston Russell,Groundwater Level,44239,unknown,50.715805,unknown,-2.5855,Kingston Russell
Bellingham,River North Tyne,023037,3,55.142852,0.032,-2.261953,Bellingham
,,690232,unknown,53.66352163581539,unknown,-2.1725513625468333,Whitworth
North Tidworth,River Bourne,43157,0.401,51.242295,0,-1.662004,Tidworth Manor Bridge
Tideford,River Tiddy,47141,0.503,50.413192,0.061,-4.331177,Tideford
Torksey,River Trent,4065,4.65,53.293511,1.4,-0.750996,Torksey
New Alresford,Alre,E12791,0.55,51.090021,0.173,-1.181212,Drove Lane
Welney Causeway,River Ouse,E21341,2.4,52.518826,0.459,0.252026,Welney Causeway
Euxton,Yarrow,700404,0.9,53.655307,0.083,-2.676594,Pincock Brow
Walcot,River Tern,2012,1.3,52.706629,0.386,-2.60558,Walcot
Satterthwaite,Cunsey Beck,735226,0.847,54.338025,0.289,-2.970931,Eel House Bridge
Gloucester,Wotton Brook,2272,1.5,51.863183,0.005,-2.221361,Armscroft Place
Bodicote,Sor Brook,1437TH,0.327,52.028582,0.058,-1.326852,Bodicote
Chipping Ongar,Cripsey Brook,5427TH,1,51.709101,0.083,0.239586,Chipping Ongar
Streatley,Thames,2003TH,0.215,51.523317,0.05,-1.141252,Goring Lock
High Green,River Calder,L12061,unknown,53.732576,-0.01,-2.045202,Todmorden Callis Bridge
Smithy Houses,Bottle Brook,4190,0.47,53.019889,0.35,-1.425573,Smithy Houses
Appleton,Thames,1099TH,0.376,51.716858,-0.004,-1.374624,Northmoor Lock
,,53160,unknown,51.36647346529826,unknown,-2.6222042940476684,CHEW MAGNA RESERVOIR
Sturmer,Stour Brook,E22511,0.98,52.069056,0.059,0.474036,Sturmer
Little Bytham,West Glen (To Kates Bridge),E2694,0.44,52.748345,0.01,-0.50217,Little Bytham
Barbrook,West Lyn River,50123,0.339,51.213836,0.083,-3.841064,Barbrook Bridge
Silsden,Silsden Beck,L1515,unknown,53.923505,unknown,-1.933535,Silsden
Stokesley,River Leven,L3804,0.898,54.46291,0.289,-1.19831,Stokesley Downstream
Semington,Semington Brook,53123,2,51.343988,0.266,-2.134327,Semington
Kislingbury,Nene,E1946,1.89,52.231962,0.043,-0.97793,Kislingbury
Todmorden,River Calder,F1207,1.14,53.716861,0.104,-2.096931,Todmorden
Gillingham,River Lodden,43208,1.82,51.034216,0.089,-2.265615,Lodden Bridge
Ollerton,River Maun,4116,0.8,53.226502,0.244,-1.008036,Whitewater Bridge
The Mythe,River Severn,2087,2.8,52.00171,0.406,-2.163093,Mythe Bridge
Woodlesford,River Aire,F1703,1.8,53.751469,0.176,-1.423682,Fleet Weir
Croft-on-Tees,Clow Beck,L3693,1.141,54.484792,0.722,-1.567976,Croft Monk End Farm
Burnley,River Calder,712052,0.9,53.78552,0.149,-2.234141,Oxford Rd
Whaddon,Whaddon Brook,E22103,0.457,52.101809,0.167,-0.017376,Whaddon
Hartford Bridge,Blyth,022006,unknown,55.113788,unknown,-1.620023,Hartford Bridge
Combeinteignhead,River Teign,46110,unknown,50.541046,unknown,-3.550843,Coombe Cellars
Fremington,Arkle Beck,L2351,0.661,54.388254,0,-1.936823,Reeth
Isleham,Kennett,E21119,0.223,52.332181,0.011,0.438278,Beck Bridge
Exminster,Exminster Marshes,45126,0.879,50.682229,0.3,-3.470109,Limekilns
Lostwithiel,River Fowey,49110,1.5,50.431183,0.24,-4.67963,Restormel
Hemel Hempstead,Bulbourne,2844TH,1.8,51.744674,0.639,-0.49654,"Hemel Hempstead, Old Fishery Lane"
Sandilands,Witham,E1538,unknown,53.293005,unknown,0.297051,Boygrift
Wendron,River Cober,48126,1,50.133798,0.354,-5.254647,Trenear
Cantley,River Yare,E23060,1.24,52.576492,0.198,1.516029,Cantley
Kirby Sigston,Cod Beck,L2314,1.2,54.347769,0.266,-1.3567,Kirby Sigston
Aycliffe Village,River Skerne,F3705,1.4,54.60851,0.139,-1.549436,Preston-Le-Skerne
Derwent Water at Lodore,Derwentwater,750106,1.706,54.562827,0.508,-3.138777,Derwent Water at Lodore
Ross On Wye,Wye,055817_TG 323,3.2,51.915339,0.254,-2.587573,Ross On Wye
Tanh Hall,River Derwent,L2810,9,53.991789,6.99,-0.916086,Stamford Bridge
Lakenheath,Little Ouse,E21838,2.105,52.453082,1.64,0.545246,Little Ouse
Whitwick,Grace Dieu Brook,4204,1.25,52.739499,0.131,-1.353725,Whitwick
Crewgreen,River Severn,2175,5.2,52.735739,0.187,-2.994315,Crew Green
Cheltenham,Lilley Brook,2671,0.49,51.883138,0.3,-2.061691,Moorend Road
Bickley,Kyd Brook,4381TH,1.1,51.403702,0.033,0.060218,Gosshill Road
Wykeham,River Rye,F2502,3.45,54.174308,0.194,-0.762132,Howe Bridge
Chapel Hill,Witham,E4403,1.333,53.070452,0.386,-0.196967,Chapel Hill
Princes Marsh,Arun,E10368,0.9,51.037463,0.08,-0.89988,Princes Marsh
Fordcombe,Medway,E651,2.75,51.150722,0.249,0.174763,Colliers Land Bridge
Fairmile,River Tale,45214,0.727,50.767191,0.269,-3.29459,Fairmile
Barrow Upon Soar,River Soar,4093,1.144,52.758541,0.935,-1.164067,Pillings Lock
Sandiacre,River Erewash,4427,1.3,52.921584,0.13,-1.283492,Sandiacre
Tibberton,River Meese,2040,0.327,52.781029,0.118,-2.474812,Tibberton
Furneux Pelham,Ash (Hertfordshire),5016TH,1,51.930418,0.13,0.086394,Furneux Pelham
Burford,Ledwyche Brook,2634,1.5,52.311774,0.531,-2.625404,Burford Bridge
Houghton Le Spring,Moors Burn,024012,1,54.842382,-0.111,-1.487058,Houghton Le Spring
Kilnhurst,River Don,L0707,3.4,53.471241,0,-1.29491,Kilnhurst Bridge
Chollerford,River North Tyne,023028,0.441,55.029637,-0.198,-2.127318,Chollerford
Hackbridge,Wandle,4165TH,1.51,51.377064,1.272,-0.160112,Hackbridge
Cornwood,River Yealm,47132,1.5,50.417855,0.107,-3.959444,Cornwood
Rothley,Rothley Brook,4056,1.25,52.7031,0.15,-1.142483,Rothley
Totteridge,Dollis Brook,3804TH,1.6,51.623491,0.259,-0.185411,Whetstone
Newton Abbot,River Lemon,46148,0.741,50.533259,0.208,-3.657787,Holbeam Dam Downstream
Bromley,Ravensbourne,4317TH,1.5,51.401378,0.427,0.028483,Bishops Avenue
Marham,River Nar,E23705,0.317,52.678061,0.097,0.547924,Marham
Branston,River Trent,4019,2.038,52.780647,1.018,-1.647106,Drakelow
Lapford,River Yeo,50151,1.237,50.857808,0.317,-3.810592,Lapford
Stroud,Slad Brook,2226,0.43,51.747599,0.13,-2.214291,Slad Road
Thuxton,River Yare,E22006,1.3,52.612011,0.168,1.01713,Low Street
East Molesey,Thames,3102TH,0.295,51.406476,0.05,-0.349558,Molesey Lock
Piddlehinton,River Piddle,44220,0.38,50.767098,0.072,-2.400751,Little Puddle
Ampney St Peter,Ampney Brook,0470TH,0.462,51.710647,0.044,-1.889951,Ampney St Peter
Goodleigh,River Yeo,50114,0.726,51.099972,0.244,-4.010005,Collard Bridge
Great Chesterford,River Cam,E21778,0.333,52.06173,0.109,0.194279,Great Chesterford
Mountnessing,River Wid,E24899,0.432,51.648181,0.081,0.346098,Mountnessing
Huntingford,Shreen Water,43236,0.51,51.067397,0.306,-2.26953,Huntingford Bridge
Ravenshaw,River Aire,L1506,4,53.940697,0.041,-2.021283,Snaygill
Hellifield,Hellifield Beck,710125,0.5,54.006777,0.3,-2.221986,Hellifield
Mevagissey,Mevagissey Stream,48191,0.75,50.272818,0.06,-4.791471,Mevagissey
Wheatley,Thame,1980TH,5.242,51.740637,3.597,-1.115198,Wheatley
Ingworth,River Bure,E23186,0.68,52.819304,0.189,1.251666,Ingworth
Nether Poppleton,River Ouse,F2405,3,53.991515,0.509,-1.135153,Skelton
Newby Bridge,River Leven,735430,1.3,54.268069,0.309,-2.974952,Newby Bridge
Capernwray,Keer,733020,0.517,54.140607,0.102,-2.731323,High River Keer
Cowley,River Creedy,45117,0.884,50.759747,0.126,-3.559651,Cowley Bridge
Wakefield,Alverthorpe Beck,L1358,1.05,53.686013,0.032,-1.529962,Wakefield Grasmere Road
Helston,River Cober,48117,4.7,50.08362,3.4,-5.291203,Loe Pool
Braunton,River Caen,50189,1.205,51.111292,0.444,-4.161795,Braunton Butts Bridge
Sheepwash Bridge,Cuckmere & Pevensey Levels,E6980,1.8,50.851679,0.9,0.522713,Sheepwash Bridge
Huish Episcopi,River Yeo,52120,2.06,51.031669,0.94,-2.798991,Huish Episcopi PS
High Ongar,Roding,5420TH,1.25,51.713888,0.047,0.259177,High Ongar
Warenford,Waren Burn,021040,0.6,55.55063,0.041,-1.979851,Waren Ford
Miller Bridge,River Rothay,735022,1.063,54.429259,0.406,-2.970683,Miller Bridge House
Gloucester,Twyver,2662,0.265,51.840929,0.081,-2.202237,Abbeymead Avenue
Wansford,Nene (Wollaston-Wansford),E2105,1.38,52.584341,0.177,-0.404444,Wansford
Bekesbourne,Nail Bourne Tributary Little Stour,E4060,1.5,51.258144,0.038,1.145929,Bekesbourne
West Farleigh,Medway,E642,2.5,51.250834,0.259,0.447181,Teston
Cove,Cove Brook,2429TH,2.3,51.315486,1.121,-0.764535,Hawley Road
Thetford,Little Ouse,E24319,0.707,52.415589,0.59,0.734272,Thetford Coffee Mill Sluice
Wanstead,Roding,5480TH,1.25,51.576239,0.123,0.040575,Redbridge
Lechlade On Thames,Thames,0701TH,0.201,51.68931,-0.011,-1.678796,St Johns Lock
Brabling Green,River Ore,E24815,1.1,52.230723,0,1.344041,Framlingham
Ludlow,River Teme,2625,2.5,52.36409,0.856,-2.706474,Ludlow Teme
Stanhope,River Wear,024003,2.15,54.746839,0.101,-2.027923,Stanhope
Low Moor,Ribble,710301,3.8,53.872754,0.202,-2.414398,Low Moor
Felldownhead,River Tamar,47123,3.1,50.60014,0.03,-4.3068,Greystone Bridge
Old Woking,Wey,3085TH,2.5,51.302063,1,-0.543308,Old Woking FWS
Bampton,Shill Brook,0913TH,2.2,51.72466,0.095,-1.54887,Bampton
Laceby,Laceby Beck,E1742,0.345,53.546656,0.02,-0.159656,Laceby
Ousden,Kennett,E23956,1.7,52.206315,0.397,0.520869,Ousden
Huddersfield,River Holme,F1003,1.2,53.638515,0.254,-1.7867,Queen's Mill
Ifield,Ifield Brook,3207TH,2.05,51.11607,0.729,-0.222649,Ifield
Urmston,Mersey,692726,1.071,53.438308,0.293,-2.344072,Ashton Weir
Bishop's Nympton,River Yeo,50142,0.715,51.025705,0.205,-3.749635,Veraby
Major's Green,River Cole,4172,0.418,52.397668,0.162,-1.853805,Solihull Lodge
Frome,Somerset Frome,53142,1.2,51.242286,0.038,-2.327797,Frome
Huntington,River Foss,F2470,2.05,53.981457,0.677,-1.067671,Huntington
Wendlebury,Wendlebury Brook,1486TH,1.38,51.874246,0.925,-1.18499,Wendlebury
East Lyng,Little Saltmoor Rhyne,52158,4.05,51.05693,3.69,-2.949032,Baltmoor Wall
Ewell,Hogsmill,3350TH,0.835,51.355767,0.026,-0.255182,Ewell
Three Elms,Yazor Brook,055031_TG 329,0.408,52.069153,0.129,-2.743532,Three Elms
Chertsey,Chertsey Bourne,2936TH,1.3,51.389272,0.3,-0.506291,Guildford Street
Boultham,Witham,E1594,1.84,53.202079,0.297,-0.553771,Bracebridge
Bainbridge,River Ure,L2208,1.5,54.311836,0.051,-2.102939,Bainbridge
Chobham,Mill Bourne,2966TH,1.77,51.349005,0.915,-0.602519,Millbourne Bridge
Low Coniscliffe,River Tees,F3501,2.5,54.517925,0.537,-1.601411,Broken Scar
Winterbourne Monkton,Kennet,2204TH,0.52,51.450901,0,-1.859793,Winterborne Monkton
Liversedge,Lands Beck,L1386,0.35,53.70985,0.015,-1.690227,Liversedge Halifax Road
Pentewan,St Austell River,48145,1.42,50.292259,1.01,-4.781629,Pentewan
North Cheam,Pyl Brook,4045TH,2.6,51.374843,0.734,-0.208335,North Cheam
Bagnor,Winterbourne Stream,2264TH,0.169,51.422436,0.041,-1.350461,Bagnor
Hertford,Beane,4890TH,0.57,51.801234,0.127,-0.079759,"Hertford, Hartham Park"
Tregony,River Fal,48108,1.5,50.266031,0.252,-4.918599,Tregony
East Farleigh,Medway,E670,1.487,51.254622,1.155,0.485076,East Farleigh Gate Upstream
Ranworth,River Bure,E21226,0.94,52.678328,0.2,1.487896,Ranworth Broad
Taunton Market,River Tone,52111,1.363,51.020017,0.818,-3.100618,Taunton Market
Honiton,The Gissage,45233,0.364,50.798774,0.028,-3.194372,Honiton
Darlington,River Skerne,L3503,1.7,54.533023,0.08,-1.550268,John St Darlington
Longford,Colne,2893TH,1,51.466242,0.21,-0.501779,Stanwell Mill
Peterchurch,Dore,PCHURCH_TG 342,1.2,52.041372,0.193,-2.955501,Peterchurch
Bromley,Ravensbourne,4310TH,1.5,51.392901,0,0.019484,Hayes Lane
Ferrybridge,River Aire,L1808,2.1,53.713768,0.158,-1.268135,Ferrybridge Lock
Leeds,Wyke Beck,L17012,unknown,53.800865,0.075,-1.480337,Halton
Burstwick,Burstwick Drain,F3316,1.27,53.739921,0.176,-0.144398,Burstwick Hall Road Bridge
Alton,Wey,3012TH,0.4,51.150372,0,-0.96697,Kings Pond
Cheltenham,Hatherley Brook,2653,0.32,51.88594,0.08,-2.093645,Merestones Road
Newton-On-Rawcliffe,Pickering Beck,L2519,0.95,54.308919,0.189,-0.746353,Levisham Station
Newport Pagnell,River Ouse,E21449,1.9,52.087826,0.105,-0.717093,Newport Pagnell (Cemetery)
Catford,Ravensbourne,4370TH,1.475,51.441442,0.071,-0.026869,Catford Hill
Bourton Grounds,The Twins,E24806,0.726,51.991569,0.105,-0.939719,Bourton Grounds
Lincoln,Witham,E1608,0.66,53.229862,0.23,-0.546842,Brayford Pool
Culham,Thames,1800TH,3.006,51.647821,1.911,-1.254167,Sutton Courtenay
Callow End,River Severn,2616,5,52.158602,0.512,-2.219449,Kempsey Yacht Club
Bodiam,River Rother,E5852,2.3,50.991816,0.07,0.524378,Udiam
Hurst Green,Ribble,713056,2.5,53.833695,0.259,-2.453518,New Jumbles Rock
Edmonton,Pymmes Brook,5369TH,1.3,51.615727,0.042,-0.065253,"Edmonton, Silver Street"
Hollins,Roch,690205,0.75,53.5659,0.07,-2.293017,Blackford Bridge
Brant Broughton,Brant,E2815,0.298,53.080542,0.04,-0.614579,Brant Broughton
Bolton Percy,River Wharfe,L2013,5.75,53.85387,2.998,-1.182217,Bolton Percy
Newick,Ouse [So],E8221,1.75,50.975187,0.242,0.034071,Goldbridge
Samlesbury,Ribble,713019,4.25,53.76911,1.14,-2.624715,Samlesbury
Rickmansworth,Chess,2859TH,0.3,51.641989,0.059,-0.46125,Rickmansworth
Lancaster,Lune,724735,6,54.051851,1.607,-2.822021,Lancaster Quay
Repps,River Thurne,E24064,1.07,52.70167,0,1.571118,Repps
Cowley,Pinn,2889TH,0.7,51.533611,0.037,-0.47115,Uxbridge
Charles,River Bray,50133,0.772,51.076717,0.197,-3.866807,Newtown Bridge
Stanmore,Edgware Brook,3823TH,0.6,51.610531,0.049,-0.313052,"Stanmore, Wolverton Road"
Nottingham,Day Brook,4163,0.95,52.986245,0.033,-1.163701,Day Brook
Whittonditch,Aldbourne,2229_w2TH,0.316,51.443821,0.029,-1.584692,Ramsbury Side
Bristol,River Avon,53133,0.838,51.451028,0.151,-2.55481,Netham Weir
Colne Engaine,River Colne,E22744,1.14,51.935709,0.042,0.697218,Earls Colne
Wareham,Dorset Coast,44202,unknown,50.683502,unknown,-2.108932,Wareham
Sankey,Sankey Brook,694041,3.5,53.38377,1.209,-2.624305,Liverpool Road
West Bridgford,River Trent,4126,2.9,52.92478,0.86,-1.166968,Clifton Bridge
Pershore,River Avon,2097,3.606,52.10744,3.36,-2.07193,Pershore
Nunton,River Ebble,43120,1.083,51.036427,0.49,-1.771751,Nunton Bridge
Penberth,Penberth Stream,48173,0.675,50.050669,0.192,-5.634771,Penberth
Nunnykirk,River Font,022016,1.62,55.234068,0.299,-1.901705,Nunnykirk
Harbertonford,River Harbourne,46120,1.179,50.390648,0.654,-3.72194,Palmers Dam
Drayton,Welland (To Mkt.Harborough),E2296,2.08,52.515233,0.028,-0.794532,Ashley
Catterick Village,Brough Beck,L2361,1,54.375096,0.134,-1.633059,Catterick Village
Upton Hellions,River Creedy,45136,0.956,50.820959,0.176,-3.65782,Upton Hellions
Common Moor,River Fowey,49120,1.5,50.501243,0.266,-4.500737,Trekeivesteps
Went Green,River Went,L0902,2.428,53.660847,1.017,-0.99124,Went Outfall
Tower Pier,Thames Tideway,0007,unknown,51.506753,unknown,-0.078706,Tower Pier
St Helens,Eastern Yar,E14993,unknown,50.693632,unknown,-1.107996,Bembridge
Mansfield,River Maun,4710,1.4,53.137597,0.602,-1.198884,Field Mill
Taplow,Thames,2604TH,3.25,51.524146,2.27,-0.702103,Maidenhead
New York,West Fen Catchwater,E4413,1.1,53.081293,0.094,-0.140778,New York
Winsham,River Axe,45224,1.272,50.850029,0.805,-2.888672,Winsham
Sowerby Bridge,River Calder,L1205,1.4,53.707881,0,-1.912089,Sowerby Bridge
Brampton,Alconbury Brook,E21713,1.514,52.330595,0.09,-0.227967,Brampton Racecourse
Eathorpe,Leam,2050,1.159,52.316208,0.238,-1.431466,Eathorpe
Brierfield,Pendle Water,712113,0.603,53.811466,0.19,-2.248409,Barden Lane
,,685505,unknown,53.38293533244447,unknown,-3.108290402233765,Greasby Road
Clitheroe,Ribble,710320,0.304,53.870513,0.069,-2.388461,Waterloo Road
Maidenhead,The Cut,2694TH,1.5,51.506197,0.776,-0.710164,The Bighams
Wigton,Wiza Beck,755790,unknown,54.817425,unknown,-3.167142,"Wiza Beck Storage Basin, Wigton"
Middleton-On-Leven,River Leven,F3803,1.5,54.477707,0.213,-1.298736,Foxton Bridge
Sutton Gault,River Ouse,E23752,2.8,52.39784,0.431,0.093691,Sutton Gault
Hexham,Cockshaw Burn,023038,0.18,54.969163,0.09,-2.115677,Hexham
Horley,Mole,3230TH,2.15,51.173918,0.189,-0.18323,Horley
Lifton,River Thrushel,47142,0.975,50.647179,0.118,-4.267416,Tinhay
Idmiston,River Bourne,43158,0.6,51.137063,0,-1.72023,Idmiston
Marston Green,River Cole,4066,0.385,52.484208,0.129,-1.731944,Bacons End
Redbourn,Red,2816TH,0.65,51.793132,-0.247,-0.396615,Redbourn River Red
Hunsingore,River Nidd,F2104,0.85,53.971293,0.084,-1.349003,Hunsingore
West Bay,Dorset Coast,44105,unknown,50.711622,unknown,-2.762844,West Bay
Esher,Mole,3290TH,4.02,51.381714,1.272,-0.377493,Esher
Ewelme,Ewelme Brook,1995TH,0.138,51.619653,0.041,-1.073786,Ewelme
Pointon,Pointon Lode,E1228,0.56,52.867461,0.015,-0.333163,Pointon Lode
Welwyn,Mimram,4770TH,0.45,51.837638,-0.136,-0.221289,Fulling Mill
Albury,Law Brook,3074TH,0.15,51.210841,0.054,-0.504627,Albury
Radcot,Thames,0902TH,0.324,51.699764,0,-1.573094,Radcot Lock
Braunton,River Caen (Tidal),50124,unknown,51.100527,unknown,-4.16425,Braunton
Hamerton,Alconbury Brook,E21788,1.4,52.428112,1.015,-0.3542,Hamerton
Hessle,Fleet drain,L3211,unknown,53.729222,unknown,-1.949407,Hessle
Stokesley,River Leven,L3805,1.62,54.468269,0.01,-1.194564,Stokesley
Southstoke,Midford Brook,53124,1.44,51.348874,0.499,-2.340892,Midford
Robertsbridge,Dudwell Tributary  Rother,E6642,1.4,50.981447,0.062,0.468833,Browns Bridge
Burton-Le-Coggles,West Glen (To Kates Bridge),E2300,0.98,52.823395,0.035,-0.536693,Burton Coggles
Hammoon,River Stour,43209,2.56,50.931417,0.145,-2.257544,Hammoon
Lilbourne,River Avon,2088,0.659,52.395138,0.098,-1.173153,Lilbourne
Byton,Lugg,055014_TG 306,1.3,52.276841,0.279,-2.932709,Byton
Thorpe In Balne,Ea Beck,L0930,3.2,53.573336,0.193,-1.104443,Norwood
South Newton,River Wylye,43111,0.65,51.107453,0.135,-1.878102,South Newton
Stoke D'abernon,Mole,3286TH,2.4,51.323836,1.012,-0.41269,Downside Bridge
Mitford,River Wansbeck,022007,2,55.166192,0.221,-1.726832,Mitford
Frisby on the Wreake,River Wreake,4873,1.61,52.755673,0.476,-0.970755,Frisby on the Wreake
North Bovey,River Bovey,46111,0.418,50.639783,0.069,-3.787037,North Bovey
Cleator,Keekle,744250,2.6,54.507361,0.427,-3.525782,St Leonards
Stratton,Churn,0260TH,0.513,51.724451,0.078,-1.972293,Cirencester
Exmouth Tide,South Devon Coast,45127,unknown,50.616779,unknown,-3.424247,Exmouth
Marhamchurch,River Neet,49111,0.45,50.806416,0.051,-4.536465,Helebridge
Marsden,River Colne,L1108,0.531,53.601624,0.238,-1.927299,Marsden
Grampound Road,River Fal,48127,1.5,50.319157,0.173,-4.898882,Trenowth
Normanby,River Seven,F2540,0.547,54.229304,0.078,-0.870939,Normanby
Wootton,Glyme,1289TH,0.386,51.864215,0.05,-1.356609,Woodstock
Abbeystead,Wyre,720101,0.6,53.978695,0.1,-2.677098,Abbeystead Reservoir
Chetnole,River Wriggle,52130,0.283,50.873685,0.039,-2.566002,Chetnole
Merton,Wandle,4180_w2TH,0.262,51.419659,0.058,-0.18127,Wandle Park Side Channel
Loughborough,Wood Brook,4205,0.5,52.765357,0.026,-1.214327,Loughborough
Cockfosters,Pymmes Brook,5362TH,0.9,51.650298,0.041,-0.164059,New Barnet
Honiton,Glen Stream,45215,1.351,50.796646,0.398,-3.183491,Honiton
Cheltenham,Chelt,2139,0.449,51.885938,0.28,-2.052672,Charlton Kings
Coleshill,River Blythe,4094,1.275,52.496238,0.617,-1.688419,Castle Farm
Eaton Upon Tern,River Tern,2041,0.6,52.804654,0.169,-2.521796,Eaton On Tern
Romsey,Tadburn Lake,E13271,0.76,50.989153,0.065,-1.48518,Romsey Botley Road
Chesham,Chess,2852TH,0.6,51.702625,0.256,-0.614039,Chesham
Cheltenham,Chelt,2635,0.2,51.890714,0,-2.066105,Cox's Meadow
Cockfield,River Gaunless,024013,0.65,54.619058,0.047,-1.793998,Lowlands
Caton,Lune,724629,3.2,54.081344,0.28,-2.722026,Caton
Cawood,River Ouse,L2403,6.1,53.833727,0.835,-1.12853,Cawood
Cowley,Colne,2882TH,0.7,51.529235,0.274,-0.488741,"Iver, Clisbys Bridge"
Tebay,Lune,722242,1.352,54.420034,0.215,-2.599286,Lunes Bridge
Whitstone,River Tamar,47133,1.4,50.766235,0.077,-4.425512,Crowford Bridge
Welches Dam,Counter Drain,E62201,1.156,52.451684,0.699,0.163973,Welches Dam
,,2150TH,unknown,51.435679207984705,unknown,-1.2015919539401168,River Pang at Bucklebury
Marlborough,Og,2219TH,0.421,51.427238,0.047,-1.724504,Poulton Farm
Tidmarsh,Pang,2180TH,1.509,51.467698,1.072,-1.085791,Tidmarsh
Knowle,River Caen,50152,0.714,51.1339,-0.065,-4.153117,Stoneybridge
Tenbury,Kyre Brook,2227,2,52.309779,0.11,-2.59384,Tenbury (Kyre Brook)
Lower Shiplake,Thames,2302TH,0.317,51.501042,0.006,-0.886307,Shiplake Lock
Ripon,River Laver,F2220,1.3,54.133956,0.03,-1.540825,Ripon
White Lackington,River Piddle,44221,0.63,50.790604,0.08,-2.41643,South House
Cranford,Crane,3660TH,0.72,51.488753,0.056,-0.412558,Cranford Park
Chittlehamholt,River Mole,50115,1.134,50.973061,0.271,-3.909695,Woodleigh
Sharnford,River Soar,4145,0.47,52.522794,0.13,-1.29766,Sharnford
Leigh,Medway,E15611,unknown,51.194078,unknown,0.236345,Leigh Barrier Upstream
Burnley,Brun,712415,0.484,53.79678,0.318,-2.234811,Thompson park
Castle Rising,Babingley,E21050,0.292,52.798728,0.15,0.490559,Castle Rising
Otford,Darent,E15240,0.7,51.304292,0.072,0.18632,Otford
Pooley Bridge,River Eamont,761605,0.922,54.616994,0.147,-2.818572,Pooley Bridge
Staines,Ash (Surrey),3110TH,0.25,51.440376,0.048,-0.512035,Staines Ash
Briggswath,River Esk,F2902,0.95,54.462097,0.361,-0.654478,Briggswath
Thorverton,River Exe,45118,0.944,50.80427,0.233,-3.511305,Thorverton
Billinghay,Lower Witham,E4803,2.29,53.077892,0.121,-0.274288,Billinghay
Northolt,The Roxbourne,3626TH,0.7,51.561936,0.012,-0.379325,"Harrow, Thistledene Avenue"
Camps Heath,Tidal River Waveney,E23052,1.33,52.481995,-0.35,1.670537,Burgh St Peter
Beddington,Wandle,4139TH,0.22,51.371312,0,-0.120688,Waddon Ponds
Fossebridge,Coln,0630TH,0.23,51.799654,0.017,-1.885239,Fosse Bridge
Sherborne,River Yeo,52121,0.175,50.947873,0.02,-2.503101,Sherborne Lake
Kidderminster,River Stour (Worcs),2167,1.7,52.388952,0.835,-2.250478,Kidderminster
Graylingwell,Lavant,E10893,0.25,50.851113,0,-0.764553,Graylingwell
Grantchester,River Rhee,E21732,0.645,52.171412,0.479,0.099158,Cambridge Byron's Pool
Bibury,Coln,0660TH,0.328,51.754535,0.081,-1.825522,Bibury
Leeds,Meanwood Beck,L17022,unknown,53.827584,unknown,-1.570463,Meanwood
Harpenden,Lee (Upper),4650TH,1.12,51.830547,0.698,-0.347917,Harpenden
Appleby-In-Westmorland,Eden,760115,1.8,54.579959,0.251,-2.491631,Appleby
Kenton,Wealdstone Brook,3838TH,0.75,51.587068,0.112,-0.307266,Kenton Lane
Itchen Stoke,Candover Stream,E12551,0.5,51.087739,0.126,-1.189248,Borough Bridge weir
Ebbesbourne Wake,River Ebble,43177,0.611,51.018287,0,-2.011504,Ebbesbourne Wake
Derby,River Derwent,4085,2,52.92726,0.583,-1.475443,Derby City
Little Ponton,Upper Witham,E2862,0.7,52.890978,0.108,-0.62509,Saltersford
Naunton,River Severn,2032,4,52.049661,0.417,-2.200744,Saxons Lode
Feckenham,Bow Brook,2626,0.25,52.248746,0.074,-1.994455,Feckenham
Hamsterley,Bedburn Beck,024004,1.05,54.6847,0.096,-1.818483,Bedburn
Watton At Stone,Beane,4832TH,1.2,51.861312,0.28,-0.11775,Watton at Stone
North Hykeham,Upper Witham,E1780,2.11,53.176218,0.159,-0.5711,North Hykeham
Cockermouth,Cocker,751690,1.5,54.662671,0.905,-3.361333,South Street Footbridge
Lifton,River Thrushel,47124,2,50.658035,0.113,-4.241876,Hayne Bridge
Rotherham,River Don,L0601,1.8,53.425775,0.073,-1.361879,Rotherham
Ripley,River Amber,4048,2,53.072731,0.223,-1.441438,Wingfield Park
Covington,River Kym,E21324,0.7,52.314257,0.105,-0.444982,Covington
Lympstone,Exe Estuary,50180,unknown,50.648044,unknown,-3.431911,Lympstone
Bosbury,River Leadon,2255,0.8,52.08804,0.03,-2.446839,Bosbury
Little Thetford,River Ouse,E22035,1.744,52.364009,1.457,0.2603,Soham Lode
Flixton,Mersey,692727,3.3,53.439969,0.233,-2.388645,Flixton Bridge
Weare Giffard,River Torridge,50143,unknown,50.977311,unknown,-4.178073,Weare Giffard
Skipton,Eller Beck,L1535,1.1,53.959571,0.01,-2.022817,Skipton Morrisons
Stansted Mountfitchet,Stansted Brook,5129TH,0.67,51.89464,0.058,0.186331,"Stansted Mountfitchet, Gypsy Lane"
Littlebourne,Little Stour Trib  Great Stour,E3401,0.176,51.273726,0.015,1.168504,Littlebourne
Chalgrove,Chalgrove Brook,1984TH,1.5,51.663282,0.9,-1.075268,Chalgrove
Great Somerford,River Avon,53143,0.741,51.547559,0.157,-2.049871,Great Somerford
Teddington,Thames,3401TH,0.217,51.429566,0.009,-0.318416,Teddington Lock
Northmoor Green,Northmoor Main Drain,52159,3.395,51.073454,3.098,-2.964814,Northmoor Drain
Hurley,Thames,2497TH,0.155,51.55135,0.023,-0.808421,Hurley Lock
Harlow,Canons Brook,5189TH,1.4,51.773908,0.053,0.073644,"Harlow, Elizabeth way"
Ponsanooth,Kennal,48183,0.49,50.196411,0.044,-5.136703,Ponsanooth
Harford,River Erme,46130,0.765,50.421783,0.235,-3.918076,Harford
Hythe End,Thames,2702TH,0.273,51.438166,0.08,-0.537257,Bell Weir
Gwills,River Gannel,49130,0.746,50.393206,0.044,-5.056217,Gwills
Thornhill,River Derwent,4001,0.818,53.362304,0.302,-1.703631,Yorkshire Bridge
Dubwath,Derwent,751110,2.21,54.677997,0.44,-3.24495,Ouse Bridge
Redhill,Redhill Brook,3245TH,2,51.239844,0.493,-0.166451,Redhill
Ramsbottom,Irwell,690155,1.8,53.650068,0.255,-2.31342,Ramsbottom Weir
Scorton,Wyre,720120,0.672,53.937868,0.248,-2.770317,Six Arches
Malmesbury,Sherston Avon,531158,0.442,51.580872,0.093,-2.094819,St Johns Weir
Kirkby On Bain,River Bain,E1187,1.1,53.144196,0.003,-0.140051,Kirkby On Bain
Newtown,River Severn,2195,10.2,51.717437,2,-2.482837,Sharpness
Darwen,Darwen,713205,0.65,53.69442,0.034,-2.466407,Hardman Way
Sheffield,River Don,L0504,2.1,53.445208,0.88,-1.549184,Wharncliffe Side
Lamarsh,River Stour,E21227,1.65,51.987468,0.154,0.752212,Lamarsh
Ilchester,River Yeo,52112,1.496,51.003358,0.096,-2.683234,Ilchester
East Budleigh,Budleigh Brook,45234,0.651,50.656145,0.458,-3.324921,Budleigh Brook
Leeds,Wyke Beck,L17013,0.12,53.812894,0.052,-1.481054,Gipton South Parkway
Cheltenham,Chelt,2654,1.3,51.889683,0.24,-2.062296,Cox's Flume
Byfleet,Wey,3089TH,2.3,51.346115,0.238,-0.465049,Brooklands
North Harrow,Yeading Brook,3609TH,0.9,51.57755,0.064,-0.380271,"Harrow, Village Way"
Keighley,River Worth,F1403,1,53.864265,0.22,-1.904159,Keighley
Reedham,River Yare,E24807,1.33,52.559314,-0.45,1.570041,Reedham
Aldington,Badsey Brook,2023,1.112,52.100775,0.141,-1.910164,Offenham
Stroud,Frome (MI),2617,0.5,51.723887,0.033,-2.130978,Chalford
East Ayton,River Derwent,F2708,0.377,54.253794,0.064,-0.481916,West Ayton
Charmouth,River Char,44115,1.13,50.739791,0.047,-2.891657,Charmouth
Littleborough,Roch,690206,unknown,53.645347,unknown,-2.092047,Littleborough
Hemel Hempstead,Gade,2841TH,0.53,51.757619,0.066,-0.475391,"Hemel Hempstead, Bury Mill,"
Liftondown,River Tamar,47115,3,50.640271,0.226,-4.330759,Polson Bridge
Edgbaston,River Rea,4039,0.416,52.460104,0.087,-1.897221,Calthorpe Park
Penshurst,Eden Tributary  Medway,E1140,1.75,51.172608,0.085,0.173074,Penshurst
St Neots,River Ouse,E61101,1.1,52.242947,0.824,-0.263656,St Neots
Farnham,Wey,3020TH,0.82,51.209424,0.046,-0.803594,Farnham
"Townhead, Penrith",Thacka Beck,768010,unknown,54.668303,unknown,-2.76746,Thacka Beck Reservoir
Northlew,River North Lew,50134,0.424,50.779388,0.07,-4.127794,Norley Bridge
Ordsall,River Idle,4164,0.85,53.308371,0.19,-0.942655,Ordsall
Great Houghton,Nene (N'hampton-Wollaston),E1363,1.041,52.229163,0.935,-0.868182,Bedford Road Sluice
Hambrook,Bristol Frome,53134,1.118,51.492586,0.312,-2.523813,Frenchay
Skelton On Ure,River Ure,F2202,2.5,54.094961,0.11,-1.457159,Westwick Lock
Church Stretton,Ash Brook,2705,0.21,52.5405,0.02,-2.801605,Church Stretton
Dallam,Sankey Brook,694042,2.34,53.407175,0.24,-2.608928,Higham Avenue
Selby,River Ouse,L2401A,4.3,53.786072,0.357,-1.066528,Selby Westmill
Tewkesbury,River Avon,2098,2.8,51.998663,2.127,-2.155508,Upper Pound
Bywell,River Tyne,023001,4.6,54.94992,0.408,-1.942194,Bywell
Woodyates,Groundwater level,43121,unknown,50.974908,unknown,-1.978577,Woodyates
,,48174,unknown,50.26006784442465,unknown,-5.279221851309203,PORTREATH
Morpeth,Wansbeck,022017,unknown,55.167634,unknown,-1.6945,Morpeth
Isleham,Lark,E22374,2.19,52.357278,1.939,0.418569,Isleham
Teignmouth,Tide,46121,unknown,50.544315,unknown,-3.499054,Teignmouth
Dore,River Sheaf,L0407,0.5,53.326618,0.125,-1.516187,Dore Twenty Well Lane
Alberbury,Field Drain,2830,0.97,52.735118,0.91,-2.960681,Hayes Basin
Mount,Warleggan River,49121,0.714,50.477206,0.234,-4.595304,Trengoffe
Yeoford,River Yeo,45137,0.6,50.775566,0.102,-3.718339,Yeoford
Fishlake,River Don,L0903,3.176,53.61394,1.451,-0.990666,Fishlake
Merton,Wandle,4192TH,3.295,51.428571,0.853,-0.187677,Summerstown
Chelsea,Thames Tideway,0008,unknown,51.484369,unknown,-0.149631,Chelsea
Bissoe,Carnon River,48137,0.864,50.229401,0.236,-5.120933,Bissoe
Stony Stratford,River Ouse,E60701,0.304,52.053714,0.151,-0.855119,Stony Stratford
Hayes,Ravensbourne,4314TH,1.4,51.385199,0.924,0.047688,Magpie Hall Lane
Brompton,Brompton Beck,L2325,1.21,54.363307,0.058,-1.418617,Brompton
Wimboldsley Green,Weaver,680504,2.6,53.165868,0.316,-2.494907,Ashbrook
Dewsbury,River Calder,F1306,2.7,53.68774,0.482,-1.627459,Dewsbury
Upottery,River Otter,45262,0.415,50.859191,0.146,-3.133654,Upottery Bridge
Littlehampton,Arun,E9740,unknown,50.806886,unknown,-0.543902,Littlehampton
Sulham,Sulham Brook,2195TH,0.218,51.462237,0.032,-1.077263,Sulham
Pilton,Nene (Wollaston-Wansford),E2125,1.3,52.442977,0.286,-0.492641,Lilford
Hebden Bridge,River Calder,L1206,0.75,53.741165,0,-2.027245,Hebden Bridge
Surlingham,River Yare,E24835,1.1,52.612266,0.017,1.434411,Brundall
Millbrook,Tanners Brook,E13281,0.5,50.919652,0.026,-1.447963,Millbrook
Little Hadham,Ash (Hertfordshire),5039TH,0.52,51.884165,-0.097,0.09127,Little Hadham
West Auckland,Oakley Cross Beck,024023,0.8,54.632367,0.189,-1.71028,Oakley Cross Beck
Farmoor,Thames,1102TH,0.286,51.761748,0,-1.362413,Pinkhill Lock
Hexham,Cockshaw Burn,023039,1.3,54.973701,0.003,-2.105879,Hexham Tanners Row upstream
Salisbury,River Bourne,43159,1.22,51.062826,0.65,-1.779755,Salisbury Bourne
Shardlow,River Derwent,4067,1.6,52.880685,0.492,-1.346428,Church Wilne
Newton Abbot,River Lemon,46159,0.539,50.529998,0.027,-3.614031,Union Bridge
Market Rasen,Rase,E1502,0.68,53.38885,0.063,-0.330909,Market Rasen
Charvil,Loddon,2490TH,1.652,51.484806,0.504,-0.880942,Twyford
Portland,Dorset Coast,44106,unknown,50.569876,unknown,-2.441027,Portland
Red Rock,Douglas,700295,1.1,53.583885,0.106,-2.637387,Red Rock
Melton Mowbray,River Wreake,4192,1.26,52.762225,0.77,-0.889833,Melton Park
Collingham,River Wharfe,L2005,1.585,53.912329,0.345,-1.418426,Collingham
Glossop,Glossop Brook,692115,0.6,53.445001,0.053,-1.964573,High Street West
Thetford,Thet,E21195,0.568,52.412682,0.142,0.762195,Melford
"White House Gardens, Penrith",Thacka Beck,768001,0.396,54.661143,0.145,-2.747001,"White House Gardens, Penrith"
Chulmleigh,Little Dart,50125,0.92,50.907767,0.172,-3.863651,Chulmleigh
Colston Bassett,River Smite,4155,1.7,52.896019,0.492,-0.962231,Colston Bassett
Stokesley,River Leven,L3806,2.5,54.473986,0.276,-1.173419,Stokesley Upstream
Minsterworth,River Severn,2102,5.75,51.850206,0.953,-2.336612,Minsterworth
Compton Dando,Chew River,53125,1.312,51.380436,0.489,-2.506812,Compton Dando
Boultham,Witham,E2900,0.59,53.213742,0,-0.55188,Bargate Weir
Perlethorpe,River Meden,4118,0.47,53.233981,0.175,-1.032134,Perlethorpe
Norton Bavant,River Wylye,43112,0.45,51.1839,0.116,-2.132143,Norton Bavant
Hawley,Darent,E15250,0.41,51.423959,0.018,0.230865,Hawley
Wokingham,Emm Brook,2486TH,1,51.40345,0.395,-0.836924,Wokingham
Lower Ashton,River Teign,46112,0.98,50.650314,0.433,-3.64162,Ashton
Exeter,River Exe,45128,3.834,50.716251,3.282,-3.527368,Trews Weir
Truro,River Kenwyn,48128,1.3,50.264906,0.086,-5.060481,Truro
Saltaire,River Aire,L1605,1.1,53.840066,0.345,-1.789021,Saltaire
Ferriby Sluice,Ancholme,E1442,unknown,53.677267,unknown,-0.525433,South Ferriby
Great Yarmouth,Norfolk Coast,E41137,unknown,52.571947,unknown,1.738433,Great Yarmouth
Buxted,Uck,E8190,1.4,50.989265,0.108,0.127308,Buxted
Bradbury,River Skerne,F3707,1.5,54.650589,0.137,-1.508677,Bradbury
Scorton,Wyre,720102,1,53.943587,0.069,-2.761388,Scorton
Eton,Thames,2698TH,0.301,51.491873,0.096,-0.604104,Romney Lock
Cheddar Gorge,Cheddar Yeo,52229,0.345,51.282166,0.179,-2.768948,Cheddar Gorge
Offord Cluny,River Ouse,E24367,0.656,52.27627,0.332,-0.223832,Offord
Appley Bridge,Douglas,700309,2.5,53.577223,0.374,-2.72144,Appley Bridge
Swallowfield,Loddon,2420_w1TH,0.75,51.381826,0.157,-0.966655,Sheepbridge Weir Mill Stream
Steeple Aston,Cherwell,1453TH,1.3,51.920573,0.361,-1.306366,Heyford Bridge
Lower Arncott,Ray(Oxon),1483TH,2.073,51.861059,0.297,-1.119228,Lower Arncott
Sleaford,Slea,E4405,0.18,53.00001,0.04,-0.427906,Cranwell Line Sluice
Sidmouth,River Sid,45216,0.075,50.682142,0.011,-3.235982,Sidmouth
Launceston,Kensey,47171,0.961,50.641712,0.115,-4.362839,Launceston
Horsmonden,Teise,E1901,2.5,51.132785,0.082,0.453941,Stonebridge
Copley,River Gaunless,024014,0.6,54.620959,0,-1.868324,Copley
Withyham,Medway,E1530,1.8,51.107299,0.019,0.139866,Summerford Bridge
York,River Ouse,L2404,7.9,53.952443,5.052,-1.078056,Foss Barrier
Reading,Thames,2201TH,0.262,51.460811,0.068,-0.963635,Caversham Lock
Southwold,Tide,E42196,unknown,52.315823,unknown,1.670054,Southwold
Ashbourne,Henmore Brook,4058,0.351,53.013888,0.147,-1.738962,Ashbourne
Montford,River Severn,2005,4.8,52.724474,0.287,-2.872198,Montford
Wakefield,Oakenshaw Beck,L1322,0.148,"[53.668643, 53.668661301860595]",0.003,"[-1.47261, -1.4726555609558967]",Wakefield Oakenshaw
Edenhall,River Eamont,762006,2,54.667313,0.152,-2.659359,Udford
Ardingly,Shell Brook,E8241,0.8,51.038151,0.016,-0.100109,Ardingly
Catcliffe Drain,River Aire,F1608,1.1,53.85124,0.212,-1.842838,Bingley
Alder Forest,Worsley Brook,690350,0.228,53.494067,0.071,-2.375559,Chestnut Road
South Molton,River Mole,50153,0.338,51.016893,0.008,-3.822486,Mole Mills
Tenbury,Kyre Brook,2228,3,52.298087,0.47,-2.55805,Sutton Bridge
Sandford-on-Thames,Thames,1502TH,0.4,51.708312,-0.25,-1.232825,Sandford-on-Thames
Clint Green,River Tud,E22008,1.82,52.669401,0,0.995655,Stone Road Farm
Earby,Earby Beck,L1545,0.4,53.914547,0.114,-2.144584,Earby New Cut
Widford,River Wid,E22885,0.93,51.727462,0.032,0.441028,Writtle
Rodbourne,Gauze Brook,53153,0.353,51.554844,0.039,-2.092255,Rodbourne
Sturmer,River Stour,E22504,1.43,52.077093,0.106,0.491629,Kedington
Romford,Rom/Beam,5522TH,1.75,51.583879,0.293,0.172001,Romford
Revesby,West Fen Catchwater,E4976,2.05,53.125717,0.093,-0.052667,Revesby
Great Torrington,River Torridge,50116,1.83,50.946265,0.445,-4.137186,Torrington
Kingston Upon Hull,River Hull,L3203,unknown,53.73678,unknown,-0.333833,Hull Barrier Victoria Pier
Pinxton,River Erewash,4146,1,53.0832,0.072,-1.32769,Pinxton
Yiewsley,Pinn,2890TH,1.5,51.517498,0.578,-0.476763,"Uxbridge, Philpots Bridge"
Castle Hedingham,River Colne,E22727,1.45,51.971758,0.044,0.940341,Poole Street
Addlestone,Addlestone Bourne,2989TH,0.45,51.374167,0.068,-0.478479,Addlestone
Balmerlawn,Lymington,E14530,0.37,50.824241,0.028,-1.576864,Meerut Road
Huddersfield,River Colne,F1102,1,53.67527,0.219,-1.738074,Colne Bridge
Baston,River Glen,E3003,0.72,52.720446,0.057,-0.363945,Kates Bridge
Matlock Bath,River Derwent,4011,2.5,53.124099,0.285,-1.557929,Matlock
Cullompton,River Culm,45119,0.765,50.8432,0.249,-3.392156,Woodmill
Fishtoft,Witham,E4804,unknown,52.939133,unknown,0.029724,Hobhole Sluice
Colne,Colne Water,712170,0.467,53.854769,0.073,-2.158987,Carry Bridge
Hudswell,River Swale,L2307,2,54.400646,0,-1.776608,Richmond Lownthwaite Bridge
Bubwith,River Derwent,L2803,5.5,53.81908,1.979,-0.929084,Bubwith Bridge
Pinner,Pinn,2886TH,1.1,51.598796,0.175,-0.376829,"Pinner, Moss Close"
Tolworth,Hogsmill,3369TH,2.25,51.375687,0.892,-0.264339,Worcester Road
Golders Green,Brent,3820TH,0.9,51.577539,0.075,-0.217549,Brent Cross
Willesden,Brent,3850TH,1.55,51.551558,0.049,-0.267837,"Brent, Monks park"
,,E1656,unknown,53.00741441553947,unknown,-0.020732872072234468,COWBRIDGE MAUD FOSTER GS
Leeds,Aire Washlands,L1721,0.3,53.740078,-0.005,-1.366226,Allerton Ings
Norwood Green,Brent,3880TH,3.189,51.508638,0.842,-0.342569,Hanwell
Allendale Town,River West Allen,023058,0.533,54.918811,0.087,-2.328264,Hindley Wrae Ford
South Wigston,River Sence (Soar),4086,1.607,52.573856,0.6,-1.13453,South Wigston
Coniston,Lake Coniston,737536,1.382,54.307391,0.429,-3.091306,Brown Howe
Duston,Wootton Brook,E1521,0.949,52.227978,0.46,-0.934098,Duston Mill
Yealmpton,River Yealm,47125,1.361,50.34269,0.212,-4.005399,Puslinch
Worksop,River Ryton,4049,1.05,53.309224,0.149,-1.138194,Worksop
Bromham,River Ouse,E26141,29.515,52.145941,28.979,-0.521734,Bromham
,,694460,unknown,53.38551867640771,unknown,-2.8261154503253207,Winster Drive
Olney,River Ouse,E21325,0.372,52.147499,0.075,-0.708027,Olney
Yarm,River Tees,L3602,1.8,54.512373,0.45,-1.355879,Yarm
Kettlewell,River Wharfe,L1907,2,54.145605,0.172,-2.050476,Kettlewell
Padiham,Shaw Brook Tributary,712221,0.9,53.794282,0.164,-2.306373,Dryden Street
Tadcaster,River Wharfe,L2024,7.296,53.875463,3.436,-1.253147,Cock Beck Sluices
Bishop's Stortford,Stort,5141TH,0.6,51.878177,0.059,0.160906,"Bishops Stortford, Grange Paddocks"
Aylestone,River Soar,4174,0.47,52.619792,0.173,-1.146475,Freemans Weir
Harlow,Stort,5171TH,1.58,51.795404,-0.014,0.134177,Harlow Mill
Brough,Brough Clough,L3491,unknown,53.723822,unknown,-0.58443,Brough Clough
Cookham,Thames,2601TH,0.427,51.560993,0,-0.694635,Cookham Lock
Wells-Next-The-Sea,North Norfolk Coast,E23327,unknown,52.958281,unknown,0.849573,Wells
Botley,Thames,1303TH,0.089,51.74909,0,-1.272781,Osney Lock
Swallowfield,Blackwater,2469_w2TH,0.728,51.377564,0.189,-0.952526,Swallowfield Side Channel
Hither Green,Quaggy,4389TH,0.7,51.45563,0.028,0.00613,Manor House Gardens
Kielder,Kielder Burn,023011,1.7,55.24428,0.153,-2.561453,Kielder Burn
Toynton Fen Side,Not Available,E5320,2.07,53.144479,0.129,0.086945,Toynton Fenside
Fowey,Tide,48184,unknown,50.336116,unknown,-4.633573,Fowey
Wherwell,Test,E13810,0.5,51.166603,0.3,-1.441818,Wherwell RL
Grazeley,Foudry Brook,2293TH,1.181,51.385195,0.619,-1.002649,Beech Hill
Lymington,Lymington,E14521,unknown,50.763572,unknown,-1.53771,Lymington
Cappenham,River Tove,E21042,0.582,52.131783,0.109,-0.962049,Cappenham
Camelford,River Camel,49131,1,50.640424,0.343,-4.675182,Slaughterbridge
Weedon Bec,Weedon Beck,E4832,0.177,52.229209,0,-1.080484,Weedon
Markyate,Ver,2813TH,0.88,51.838108,-0.018,-0.461149,Markyate
Tinsley,River Don,F0605,0.9,53.414361,0.355,-1.414707,Hadfields
Kirkby Mills,River Dove,F2560,0.522,54.260305,0.195,-0.919219,Kirkby Mills
Babraham,River Granta,E21005,0.235,52.131206,0.044,0.205231,Babraham
Keynsham,River Avon,531159,2.093,51.421461,0.23,-2.492956,Keynsham RL
Aldwark,River Ure,L2200,3,54.053636,0.02,-1.288144,Aldwark Bridge
Midhurst,Rother (West Sussex),E10389,1.1,50.999232,0.28,-0.786847,IPING MILL
Hoddesdon,Lee,5280TH,3.1,51.770008,2.81,0.006126,"Hoddesdon, Rye Bridge"
Weston Bampfylde,River Cam,52113,0.377,51.023159,0.026,-2.565568,Weston Bampfylde
Forde Abbey,River Axe,45235,1.807,50.841739,0.335,-2.916366,Forde Abbey
Wooler,Wooler Water,021033,1.1,55.547487,0.093,-2.011059,Wooler
Linton,River Granta,E21724,0.74,52.093158,0.07,0.292511,Linton
Maidenbower,Gatwick Stream,3223TH,2,51.110238,0.605,-0.153871,Maidenbower
North Cave,Mires Beck,F3480,0.32,53.774029,0.092,-0.651027,North Cave
South Mimms,Mimmshall Brook,2809TH,1,51.706896,0.151,-0.217824,Mimmshall Brook
Comberton,Bourn Brook,E19031,0.838,52.175048,0.088,0.01962,Comberton
Allscott,River Worfe,2024,0.55,52.555203,0.102,-2.376056,Burcote
Maisemore,River Severn,2618,2.8,51.887818,0.515,-2.256949,Sandhurst
Brackley,River Ouse,E23726,1.492,52.031808,0.119,-1.132641,Brackley
Northampton,Nene - Brampton Branch,E2223,1.26,52.244802,0.068,-0.905866,St Andrews Mill
Smallbridge,Roch,690207,1.3,53.62694,0.26,-2.13755,Albert Royds Bridge
Lifton,River Lyd,47116,2.3,50.635525,0.352,-4.279753,Lifton Park
Calne,River Marden,531112,0.489,51.438369,0.042,-2.003555,Calne
Wakefield,River Calder,L1304,0.75,53.677173,0.043,-1.491306,Wakefield
Worthenbury,Emral Brook,067042,1.219,53.007735,0.495,-2.866409,Emral Brook
Airmyn,River Aire,L1800,5.05,53.716402,1.05,-0.905933,Airmyn
North Molton,River Mole,50135,0.541,51.055152,0.095,-3.795036,North Molton
Godmanchester,River Ouse,E24302,0.488,52.318507,0.305,-0.176335,Godmanchester
Newbury,Kennet,2250TH,1.15,51.401605,0.941,-1.323874,Newbury
Hinton,Cherwell,1408TH,1.4,52.167771,0.848,-1.212815,Woodford Halse
Glusburn,Eastburn Beck,L1527,0.435,53.897872,0.043,-2.008295,Glusburn Bridge
Easton Grey,Sherston Avon,53135,0.501,51.581999,0.149,-2.158019,Fosseway
Bridgham,Thet,E22152,0.503,52.432388,0.1,0.877025,Bridgham
Maiden Newton,River Frome,44204,0.74,50.776561,0.024,-2.574345,Maiden Newton
New Mills,Goytside farm,692348,1.5,53.357485,0.58,-1.996738,Goytside Farm
Ashurst,Adur,E9157,3,50.937693,0.25,-0.301834,Merrions Weir Downstream
Barnes,Beverley Brook,4091TH,2.14,51.47009,0.897,-0.245065,Barnes
Pangbourne,Thames,2004TH,0.164,51.486605,0.009,-1.088869,Whitchurch Lock
Oulton,Oulton Beck,F1715,0.6,53.747988,0.088,-1.447992,Farrer Lane
Pilling Lane,Cockers Dyke,720780,1.1,53.938698,0.408,-2.955067,"Preesall Pumping Station, Cockers Dyke"
Orcheston,Groundwater level,43122,unknown,51.202428,unknown,-1.958392,Tilshead
Crayford,Cray,E15260,0.85,51.450401,0.076,0.173287,Crayford
Elm Park,Beam,5541TH,2.6,51.546517,0.084,0.183966,Hornchurch
Buckfastleigh,River Dart,46122,1.045,50.479033,0.291,-3.761402,Austins Bridge
Melverley,River Severn,2831,3.4,52.74743,0.924,-2.972211,Cae Howel
Sheffield,Charlton Brook,L0668,0.35,53.442771,0.036,-1.474086,High Green
Bishopstoke,Itchen,E12483,1.7,50.970553,0.45,-1.344248,Bishopstoke
Wadebridge,North Cornwall Coast,49122,unknown,50.516694,unknown,-4.834988,Wadebridge
Great Easton,Nene (Wollaston-Wansford),E4823,1.79,52.529248,0.237,-0.758769,Great Easton Flood Storage Reservoir
Kirk Bramwith,River Don,L0904,3.935,53.596385,1.52,-1.063688,Kirk Bramwith
Richmond,Thames Tideway,0009,unknown,51.462258,unknown,-0.316193,Richmond
Wendron,River Cober,48138,1.1,50.131125,0.133,-5.255319,Boscadjack
Winchmore Hill,Salmon Brook,5355TH,2.1,51.643461,0.958,-0.095003,"Enfield, The Chine"
Blandford St Mary,River Stour,43210,1.1,50.853069,0.388,-2.167089,Blandford
Todmorden,Walsden Water,L1207,1.25,53.710539,0.199,-2.101856,Todmorden Salford
Castleford,River Aire,L1703,2,53.731002,1.02,-1.358177,Castleford
Stanford Bridge,River Teme,2646,1.367,52.28899,0.221,-2.418688,Stanford Bridge
Toft Hill,River Gaunless,024024,1.63,54.634237,0.368,-1.742799,Spring Gardens Dam
Braystones,Ehen,744312,1.7,54.440158,0.34,-3.529373,Braystones
Compstall,Etherow,692190,0.75,53.413802,0.078,-2.058026,Compstall
Stockport,Mersey,692524,1.5,53.407306,0.398,-2.174445,Brinksway
Pershore,Bow Brook,2015,1.9,52.114425,0.165,-2.108012,Besford Bridge
Birstwith,River Nidd,F2106,1.5,54.038156,0.105,-1.650292,Birstwith
Kites Hardwick,River Leam,2609,1.138,52.313513,0.01,-1.314911,Kites Hardwick
Netherbury,River Brit,44107,1.73,50.789421,0.276,-2.750022,Netherbury
Cheltenham,Wymans Brook,2511,0.39,51.91699,0.22,-2.086745,Windyridge Road
Bardsey,Bardsey Beck,L2043,1.38,53.883728,0.121,-1.440943,Bardsey
Bickley,Kyd Brook,4382TH,1.9,51.405031,1.039,0.056251,Woodlands Road
Dane End,Beane,4868TH,1.2,51.875292,0.692,-0.062702,Dane End
Manthorpe,East Glen (To Kates Bridge),E2710,0.89,52.731094,0.31,-0.419825,Manthorpe
Sedbergh,Rawthey,723423,1.556,54.314107,0.37,-2.555012,Brigflats
Sampford Brett,Doniford Stream,51110,0.385,51.155718,0.08,-3.302248,Sampford Brett
Poole,Dorset Coast,44232,unknown,50.710531,unknown,-1.992859,Poole Harbour
Groombridge,Eridge Stream Tributary  Medway,E714,1.25,51.108316,0.127,0.172486,Hendal Bridge
Darfield,River Dearne,L0807,1.25,53.542673,0.11,-1.370686,Houghton
Lewes,Ouse [So],E8970,2.9,50.877166,0.302,0.012884,Lewes Corporation Yard
Barnstaple,Coney Gut,50126,1.749,51.073179,1.464,-4.041276,Coney Gut
Great Ayton,River Leven,L3807,0.74,54.489046,0.03,-1.144757,Great Ayton
Saltford,River Avon,53126,1.409,51.399488,0.455,-2.447727,Saltford
Kingskerswell,Aller Brook,46150,0.415,50.486806,0.294,-3.568943,Kingskerswell
Thornton le Dale,Thornton Beck,L2725,0.7,54.23945,0.107,-0.717218,Thornton le Dale
"Sands Centre, Carlisle",River Eden,762600,Not availabl,54.898639,unknown,-2.932277,"Sands Centre, Carlisle"
Bude,North Cornwall Coast,49150,unknown,50.832964,unknown,-4.558854,Bude
Roydon,Stort,5190TH,1.6,51.764828,1.337,0.015113,"Roydon, Glen Faba"
Amesbury,River Avon,43113,0.7,51.17155,0.145,-1.785174,Amesbury
Binfield,The Cut,2620TH,0.93,51.433827,0.125,-0.773574,Binfield
Rothbury,River Coquet,022009,1.8,55.308429,0.261,-1.895992,Rothbury
Petts Wood,Kyd Brook,4378TH,0.9,51.383249,0.046,0.072664,Eynsford Close
Wasdale,Irt,743008,0.85,54.422403,0.25,-3.334074,Galesyke
Mapledurham,Thames,2199TH,0.212,51.486033,0.017,-1.039654,Mapledurham Lock
Stratton,River Strat,49113,1,50.844477,0.18,-4.509166,Bush
Wickford,River Crouch,E21284,1.67,51.61221,0.021,0.52337,Wickford
Truro,South Cornwall Coast,48129,unknown,50.252215,unknown,-5.041246,Truro Harbour
Pinner,Pinn,2802TH,0.5,51.602909,0.148,-0.384264,Waxwell Lane
Rawtenstall,Limey Water,690138,0.351,53.705772,0.044,-2.286263,Rawtenstall
Lowdham,Cocker Beck,4207,0.6,53.010442,0.103,-1.024175,Lowdham Grange
Legburthwaite,St Johns Beck,750605,1.5,54.565937,0.11,-3.063696,Thirlmere
Spalding,Welland Below Peakirk,E1072,1.452,52.799742,0.954,-0.132532,Marsh Road Sluice
Lincoln,Witham,E1406,0.988,53.228743,0.846,-0.528903,Stamp End Sluice
Pudsey,Farnley Beck,L17033,0.4,53.798147,0.066,-1.629685,Pudsey
East Ness,River Rye,F2505,1.3,54.203845,0.34,-0.937557,Ness
Burneside,Kent,730120,1.2,54.36176,0.13,-2.771951,Bowston
Deeping St James,Welland Below Peakirk,E2613,1.152,52.666216,0.944,-0.280199,Deeping St James
Colyton,River Coly,45217,0.51,50.747683,0.185,-3.110915,Bonehayne
Tavistock,Tavy,47172,1.648,50.550641,0.78,-4.14273,Tavistock
Longtown,Lochinvar Beck,770500,unknown,55.009258,unknown,-2.963066,"Lochinvar storage basin, Longtown"
Flamstead End,Rags Brook,5308TH,2.25,51.713361,0.767,-0.060582,"Cheshunt, Rosedale way"
West Auckland,River Gaunless,024015,1.27,54.633826,0.091,-1.719549,West Auckland
Stratford St Andrew,River Alde,E23151,0.268,52.188599,0.096,1.451217,Farnham
Weybridge,Wey,3090TH,1.3,51.37248,0.96,-0.466322,Weybridge
Watlington,River Ouse,E23745,unknown,52.676627,unknown,0.36647,Magdalen Bridge
Linstock,Eden,762540,2.4,54.912827,0.114,-2.893015,Linstock
Mary Tavy,River Tavy,47135,2,50.585989,0.061,-4.106699,Mary Tavy
Bloxham,Bloxham Brook,1431TH,0.809,52.017279,0.636,-1.380792,Bloxham
Handsworth,River Rother,F0304,1.78,53.366398,0.371,-1.352246,Woodhouse Mill Regulator
Earby,Earby Beck,L1546,0.227,53.918527,0.002,-2.130286,Earby Youth Hostel
Worcester,Barbourne Brook,2131,1.35,52.211373,0.544,-2.215962,Shelley Close
Lea,Woodbridge Brook,53154,0.677,51.578233,0.052,-2.074985,Crabb Mill
Bagshot,Windle Brook,2941TH,1,51.361518,0.4,-0.689296,Bagshot
Chesterfield,River Rother,L0204,1.33,53.239901,0.047,-1.420925,Chesterfield Tapton Bridge
Leighton Buzzard,River Ouzel,E21187,0.326,51.907687,0.064,-0.668546,Leighton Buzzard
Dolton,River Torridge,50117,1.429,50.882269,0.03,-4.065162,Dolton
Beverley,River Hull,L3204,3.6,53.843243,1.524,-0.399574,Beverley Shipyard
Corbridge,River Tyne,023021,3.3,54.974805,0.132,-2.023458,Corbridge
Worcester Park,Beverley Brook,4020TH,1.75,51.380413,0.951,-0.243611,Worcester Park
Coxbank,Weaver,680301,1.7,52.983736,0.107,-2.518888,Audlem
Preston,Ribble,713030,3,53.752898,0.15,-2.680437,Walton-Le-Dale
Morden,Pyl Brook,4050TH,1.3,51.391152,0.459,-0.216322,Morden Park
King's Bromley,River Trent,4012,1.521,52.75692,0.583,-1.805399,Kings Bromley
Kingston Vale,Beverley Brook,4080TH,1.4,51.431619,0.1,-0.25215,Wimbledon Common
Cowbeech,Cuckmere,E7842,unknown,50.912658,unknown,0.290758,Cowbeech
Fadmoor,Hodge Beck,F2570,0.453,54.30324,0.162,-0.999545,Cherry Farm
Aintree,Alt,694744,0.59,53.47815,0.21,-2.918171,Kirkby
Bedford,River Ouse,E21609,0.524,52.133733,0.252,-0.460042,Bedford
Willen,River Ouzel,E21511,0.719,52.058687,0.265,-0.714748,Willen
Chertsey,Chertsey Bourne,2937TH,1.97,51.386331,0.72,-0.501357,Free Prae Road
Boroughbridge,River Tutt,L2210,13.6,54.09646,11.908,-1.394448,"Boroughbridge, Tutt level"
Greenfield,Tame,692418,0.256,53.542889,0.04,-2.009008,Uppermill
Rockland St Mary,River Yare,E21238,1.1,52.590375,0,1.436891,Rockland St Mary
High Wycombe,Hughenden Stream,2569TH,0.177,51.635574,-0.23,-0.753691,Wycombe Hugh
Ludlow,River Corve,2169,2.5,52.381603,0.771,-2.724237,Ludlow Corve
Ashleworth,River Severn,2071,3.576,51.922936,0.579,-2.265002,Ashleworth
Combs Ford,River Gipping,E23277,0.97,52.181244,0.13,1.008338,Stowmarket
Smarden,Beult,E2270,1.548,51.148275,0.278,0.682267,Smarden
Perry Barr,River Tame,4087,0.868,52.524933,0.41,-1.911514,Perry Park
Bourton-On-The-Water,Windrush,1020TH,0.225,51.886693,0.082,-1.767911,Bourton Windrush
Wyre Forest,Dowles Brook,2034,1,52.385318,0.084,-2.337878,Oak Cottage
Blawith,Crake,737537,0.95,54.284617,0.18,-3.085173,Low Nibthwaite
Little Ribston,River Crimple,F2125,0.472,53.971501,0.15,-1.388637,Blackstones Farm
Eastgate,Rookhope Burn,024006,0.82,54.74592,0.036,-2.076078,Eastgate
Hellingly,Bull,E8010,unknown,50.888318,unknown,0.244134,Hellingly
Bolingey,Bolingey Stream,48110,1.09,50.333417,0.135,-5.144361,Bolingey Cocks Bridge
Little Bowden,Jordan,E1782,1.39,52.470494,0.04,-0.909111,Litte Bowden Flood Storage Reservoir
Bruton,River Brue,52211,0.691,51.112337,0.207,-2.451073,Bruton Surgery
Manchester,Medlock,690713,1,53.474178,0.069,-2.228957,London Road
Hythe End,Colne Brook,2894TH,2.14,51.440219,0.43,-0.535292,Hythe End
Chiddingstone Causeway,Eden Tributary  Medway,E1151,2.5,51.189651,0.603,0.160853,Vexour Bridge
"Hull High Flaggs, Lincoln Street",River Aire,L1810,3.1,53.697129,0.25,-0.989661,Snaith Ings
Bishops Frome,Frome,055028_TG 9302,0.9,52.137017,0.123,-2.488532,Bishops Frome
Stickford,Hagnaby Beck,E1708,2.25,53.106632,0.025,0.0137,Hagnaby Beck
Long Wittenham,Thames,1801TH,0.849,51.648617,0,-1.210808,Clifton Lock
Buttercrambe,River Derwent,F2807,1.3,54.019124,0.277,-0.885796,Buttercrambe
Guy's Head,Nene (Orton - Wash),E2085,unknown,52.808232,unknown,0.210573,West Lighthouse
Debenham,River Deben,E24795,1.46,52.232016,0.08,1.183613,Debenham
Bucknall,River Trent,4040,0.388,53.017569,0.067,-2.162134,Bucknall
Manaccan,Manacan River,48185,1,50.081307,0.034,-5.125068,Manaccan
Blackburn,Blakewater,713119,1.5,53.744388,0.09,-2.490462,Harrison Street
Barnard Castle,River Tees,F3504,1.7,54.544622,0.462,-1.928854,Barnard Castle
Catterick Garrison,Sour Beck,L2373,0.5,54.373262,0.064,-1.705009,Catterick Garrison
Seaton,River Seaton,49132,0.7,50.410447,0.124,-4.394551,Trebrownbridge
Rushton Spencer,Dane,681003,0.476,53.169457,0.172,-2.104665,Hug Bridge
Cleckheaton,Blacup Beck,L1389,0.54,53.72204,-0.002,-1.716507,Cleckheaton Hightown Road
Lodsworth,Lod,E10440,1.5,50.992202,0.024,-0.674476,Halfway Bridge
Southend,Thames Tideway,0019,unknown,51.514457,unknown,0.723335,Southend
Water Orton,River Tame,4003,1.436,52.52039,0.27,-1.751178,Water Orton
Botley,Bulstake Stream,1645TH,1.953,51.752648,0.87,-1.281126,New Botley
South Hinksey,Hinksey Stream,1675TH,1.186,51.730973,0.841,-1.251352,Cold Harbour
Lancaster,Burrow Beck,724700,0.436,54.039446,0.262,-2.780563,Burrow Beck
Cannington,Cannington Brook,52151,0.481,51.149147,0.205,-3.061825,Cannington
New Malden,Pyl Brook,4063TH,1.6,51.397462,0.094,-0.230955,Kings College
Wray,Hindburn,724427,0.792,54.105893,0.116,-2.605757,Wray
Boroughbridge,River Ure,L2201,13,54.09646,9.622,-1.394448,Boroughbridge
Latton,Ampney Brook,0490TH,0.844,51.654587,0,-1.849612,Sheeppen Bridge
Ilton,River Isle,52114,0.54,50.964926,0.075,-2.912024,Ashford Mill
Green Street,Borehamwood Brook,2821TH,1.6,51.668568,0.827,-0.287687,Borehamwood
Upton,Arrowe Brook,685517,0.502,53.395655,0.119,-3.121735,Acton Lane
Linton,Beult,E2261,2.6,51.202357,0.114,0.515045,Stilebridge
Cheltenham,Wymans Brook,2656,0.32,51.921925,0.07,-2.099682,Manor Road
Tonbridge,Medway,E1550,2.3,51.194615,0.882,0.278452,Town Lock
Doveridge,River Dove,4078,1.405,52.902503,0.67,-1.834928,Doveridge
Crondall,Hart,2453TH,1.1,51.237321,0.6,-0.859739,Redlands Lane
Sandhurst,Hatherley Brook,2619,2.79,51.887632,0.57,-2.251427,Sandhurst (Hatherley Brook)
Shipton-On-Cherwell,Cherwell,1460_w1TH,0.811,51.861393,0.143,-1.30321,Enslow Weir A
Lealands,Bull,E8001,unknown,50.895273,unknown,0.24023,Leabridge
Gunnislake,River Tamar,47117,3,50.531278,0.297,-4.221847,Gunnislake
Selham,Lod,E10380,1.842,50.983264,0.466,-0.669759,Lodsbridge
Horbury,River Calder,L1305,2.3,53.655883,0.179,-1.562677,Horbury
Waltham Abbey,Cobbins Brook,5327TH,2.2,51.691132,0.033,0.015788,Waltham Abbey
Worthenbury,Wych Brook,067043,1.382,53.007817,0.505,-2.866276,Wych Brook
Snaith,River Aire,L1801,4.5,53.696778,0,-1.027611,Carlton Bridge
Shoreham Beach,Adur,E8980,unknown,50.828848,unknown,-0.24883,Shoreham
Banbury,Cherwell,1420TH,0.485,52.066379,0.02,-1.333286,Banbury
Muddiford,Bradiford Water,50136,0.462,51.118685,0.117,-4.048455,Plaistow Mill
Salisbury,River Avon,43160,0.94,51.061054,0.286,-1.794476,Salisbury Harnham Bridge
Ash,Blackwater,2419TH,1.45,51.237339,0.563,-0.736289,Tongham
Styal,Dean,693333,0.506,53.343712,0.074,-2.232417,Stanneylands
Brokenborough,Tetbury Avon,53136,0.519,51.602656,0.128,-2.124925,Brokenborough
Loughton,Roding,5470TH,1,51.640481,0.029,0.081584,Loughton
Witney,Windrush,1082TH,1.246,51.789786,0.464,-1.484269,Witney
Stinsford,River Frome,44205,0.397,50.712042,0.083,-2.414359,Louds Mill
Staines,Thames,2900TH,4.1,51.431611,2.699,-0.512248,Staines
Cheswick Green,River Blythe,4129,0.545,52.376154,0.187,-1.814434,Cheswick Green
Barrasford,River North Tyne,023003,3.35,55.053183,0.361,-2.148665,Reaverhill
Fordingbridge,River Avon,43123,1.35,50.928396,0.597,-1.777288,East Mills Flume
Ilam,River Manifold,4031,0.524,53.053456,0.095,-1.793028,Ilam
Clacton-On-Sea,Essex Coast,E43214,unknown,51.784824,unknown,1.156997,Clacton Pier
Bellever,East Dart River,46123,0.871,50.582293,0.451,-3.898034,Bellever
Barcombe,Ouse [So],E8312,1,50.915667,0.082,0.043425,Barcombe near reservoir
Maesbrook,Flood Channel,2832,0.516,52.779686,0.105,-3.037866,Maesbrook
Myerscough,Brock,720248,0.927,53.862594,0.12,-2.790936,Roe Bridge
Sheffield,Blackburn Brook,L0669,0.416,53.423952,-0.018,-1.416682,Sheffield Wincobank
Bedford,River Ouse,E21034,0.264,52.145596,0.192,-0.405558,Castle Mill (Bedford)
Mount,River Fowey,49123,1.8,50.458709,0.3,-4.604746,Wainsford
Burntcommon,East Clandon Stream,3075TH,2.2,51.287835,0.805,-0.505999,Send
Carswell Marsh,Thames,0903TH,0.295,51.698716,0.012,-1.534037,Rushey Lock
Hull,Burstwick Drain,L3311,unknown,53.733596,unknown,-0.230199,Salt end
Northenden,Mersey,692710,1.5,53.408784,0.27,-2.252674,Northenden
Macclesfield,Bollin,693421,0.45,53.251492,0.11,-2.120243,Old Mill Lane
Cropredy,Cherwell,1416TH,1.553,52.114915,1.044,-1.315184,Cropredy Bridge
The Leigh,Leigh Brook,2188,1.3,51.926224,0.071,-2.197575,Leigh Court
Newbold On Avon,River Avon,2090,1.079,52.38548,0.035,-1.26252,Rugby
Barrowford,Pendle Water,712153,1.66,53.84567,0.069,-2.22323,Reedyford
Oakley,River Waveney,E23036,0.9,52.359187,0.151,1.182279,Billingford
Swanton Morley,River Wensum,E23296,0.7,52.725484,0.06,0.990183,Swanton Morley
Pickering,Pickering Beck,F2515,0.6,54.227169,0.065,-0.788071,"Pickering, Ings Bridge"
Holgate,Holgate Beck,L2452,1.25,53.964636,0.002,-1.111032,Holgate
High Bentham,Wenning,724320,1.14,54.113463,0.347,-2.510184,Bentham Bridge
Tanbridge,Arun,E10023,32.6,51.061034,32.15,-0.335071,Tanbridge
Fordcombe,Medway,E1541,2.5,51.144544,0.147,0.168468,Chafford
Biggleswade,River Ivel,E19023,0.476,52.085111,0.13,-0.267906,Biggleswade
Lady Bridge,River Tame,4069,1.296,52.631289,0.864,-1.697508,Tamworth
Bishopbridge,Ancholme,E2846,1.59,53.406624,0.041,-0.44906,Rase at Bishopbridge
Croston,Yarrow,700408,1,53.655882,0.226,-2.760429,Croston
Rodington,River Roden,2016,1,52.723597,0.208,-2.609812,Rodington
Lechlade On Thames,Leach,0890TH,0.422,51.692891,0.034,-1.672984,Lechlade
Lingfield,Eden Tributary  Medway,E1170,1,51.171954,0.069,-0.007351,Lingfield Eden Brook
Scalby Mills,River Sea Cut,F2603,0.368,54.302457,0.077,-0.421725,Sea Cut at Scarborough
Bentley,River Don,F0908,3.05,53.529564,0.208,-1.141573,Doncaster
Woolston,Itchen,E12660,unknown,50.890128,unknown,-1.38803,Woolston
Weeton,River Wharfe,L2007,3.3,53.903016,0.319,-1.552492,Arthington
Bassingham,Brant,E1727,1.99,53.113634,0.215,-0.600069,Horseshoe Bridge
Greenholme,River Irthing,763308,0.861,54.914677,0.224,-2.803045,Greenholme
Williton,Monksilver Stream,51111,0.275,51.159618,0.024,-3.320133,Williton
Cundy Cross,River Dearne,L0808,2.2,53.551107,0.116,-1.439991,Cundy Cross
Okehampton,East Okement River,50127,0.401,50.735421,0.088,-3.981173,Fatherford
Broom,River Arrow,2104,0.488,52.180399,0.12,-1.87505,Broom
Twerton,River Avon,53127,0.806,51.38438,0.4,-2.37652,Bath Destructor Bridge
Kendal,Mint,730404,1.2,54.343531,0.18,-2.733522,Mint Bridge
Lindfield,Ouse [So],E8340,1.9,51.021082,0.475,-0.073715,Lindfield Bridge
Sheffield,River Sheaf,F0402,0.85,53.373248,0.12,-1.464871,Highfield
Boldron,River Greta,F3523,1.5,54.50509,0.073,-1.948998,Rutherford Bridge
Ribchester,Ribble,713040,3.9,53.811176,0.15,-2.531031,Ribchester School
Adwick le Street,Ea Beck,L0933,0.999,53.57617,0.211,-1.176242,Adwick le Street White Cross Bridge
Leeds,River Aire,F1707,2.12,53.801534,0.292,-1.574829,Armley
Rushall,River Avon,43114,0.6,51.302514,0.169,-1.809882,Upavon East
North Muskham,River Trent,4022,3.3,53.131855,0.798,-0.803653,North Muskham
Newton Abbot,River Lemon,46114,0.741,50.533259,0.208,-3.657787,Holbeam Dam
Kirby Wiske,River Wiske,F2320,2,54.253895,0.182,-1.425912,Kirby Wiske
Acle,River Bure,E23931,0.95,52.649186,0.14,1.567619,Acle Bridge
Purton Stoke,Key,0184TH,1.75,51.61322,0.504,-1.87404,Purton Stoke
Cottingley,River Aire,L1607,1.7,53.838116,0.278,-1.828238,Cottingley Bridge
Croxley Green,Gade,2849TH,1.1,51.645553,0.073,-0.436992,Croxley Green
York,Tang Hall Beck,L2480,2.99,53.962611,0.112,-1.057605,Tang Hall
Towcester,River Tove,E61901,0.85,52.135918,0.224,-0.996201,Towcester
Hickling Heath,River Thurne,E21150,0.77,52.745921,0,1.570233,Hickling Broad
Grove Park,Ravensbourne,4326TH,1.579,51.422952,0.471,-0.007672,Beckenham Park
Standford,Wey,3028TH,1.204,51.101202,0.798,-0.825956,Passfield Mill
Grove Park,Quaggy,4386TH,0.7,51.431438,0.035,0.027081,Chinbrook Park
Yarcombe,River Yarty,45218,0.41,50.8568,0.005,-3.058949,Court Place Farm
Germansweek,Wolf,47173,0.876,50.726814,0.067,-4.203103,Germansweek
Stoodleigh,River Exe,45120,1.914,50.949994,0.93,-3.506375,Stoodleigh
Bishop Auckland,River Gaunless,024016,2,54.646651,0.466,-1.672987,Dovecote Hill
Thorington Street,River Stour,E22678,1.57,51.971749,0.205,0.940326,Langham
Theale,Kennet,2290TH,0.828,51.432753,0.225,-1.067068,Theale
York,River Ouse,L2406,1.9,53.958791,0.045,-1.085536,Viking Recorder
Water End,Mimmshall Brook,2810TH,1.5,51.718066,0.046,-0.219123,North Mymms
Pillaton,River Lynher,47136,1.5,50.440154,0.218,-4.298799,Pillaton
Jeffy Knotts,River Brathay,735123,1.754,54.422024,0.447,-2.98839,Jeffy Knotts
North Warnborough,Whitewater,2442TH,0.35,51.263973,0.097,-0.950093,Lodge Farm
Creeting St Mary,Stonham Watercourse,E23115,0.81,52.167176,0.07,1.05147,Creeting
Bramham,Bramham Beck,L2035,1,53.880307,0.149,-1.355437,Bramham Screens
Chipping Sodbury,Bristol Frome,53192,0.979,51.542061,0.371,-2.385953,Chipping Sodbury
Wembley,Wealdstone Brook,3839TH,1.8,51.562196,0.066,-0.27948,Wembley
Durham,River Wear,0240120,2.63,54.776573,0.226,-1.57257,Durham New Elvet Bridge
Keswick,River Greta,750917,1.31,54.601275,0.173,-3.1492,Keswick Campsite
Leintwardine,River Teme,2132,1.4,52.359087,0.315,-2.876144,Leintwardine
Westwood,River Avon,53155,1.4,51.34297,1.014,-2.266608,Bradford on Avon
Swanage,Swan Brook,44224,0.65,50.613227,0.067,-1.971617,Swanage Prospect Farm Swan Brook
Penketh,Mersey,694063,3.705,53.374184,2.611,-2.653505,Fiddlers Ferry
Castle Carrock,Gelt,763201,0.741,54.894613,0.193,-2.686767,Hynam Bridge
Sheepwash,River Torridge,50118,1.427,50.843021,0.251,-4.122236,Rockhay Bridge
Kielder reservoir,River North Tyne,023022,1.3,55.180934,0.294,-2.45221,Ugly Dub
Sidcup,Shuttle Tributary  Cray,E15280,1,51.440152,0.278,0.113674,Lamorbey Park
Aylesbury,Bear Brook,1925TH,1.331,51.817792,0.968,-0.801624,Aylesbury
Huddersfield,Rive Colne,F1104,1.23,53.641316,0.209,-1.795095,Huddersfield Longroyd Bridge
Fleetwood,Lune And Wyre,720763,unknown,53.926518,unknown,-3.00474,Fleetwood
Blunham,River Ivel,E21647,0.549,52.144358,0.175,-0.316453,Blunham
Leatherhead,Mole,3280TH,2.4,51.294985,1.006,-0.336089,Leatherhead
London Apprentice,St Austell River,48158,1.099,50.311776,0.592,-4.800075,Molingey
Icklingham,Lark,E22358,0.619,52.326416,0.15,0.578416,Temple
Stratton St Margaret,Cole,0710TH,1.6,51.569689,0.935,-1.735909,Lower Stratton
Cundall,Cundall Beck,F2311,0.256,54.145714,0.094,-1.36005,Bat Bridge
Northwich,Weaver,680525,1.34,53.258272,0.505,-2.51651,Hayhurst Bridge
Whitwell,Mimram,4730TH,0.4,51.876889,0.021,-0.28128,Whitwell
Killington,Lune,722421,2,54.310113,0.17,-2.582471,Killington
Barton-Upon-Humber,Humber,E1435,1.2,53.689691,0.269,-0.441704,Barton on Humber
Loudwater,Wye,2581TH,0.739,51.609179,0.439,-0.699391,Loudwater
Grinton,River Swale,L2309,1.5,54.38106,0,-1.929136,Grinton Bridge
Tewin,Mimram,4790TH,0.8,51.803418,0.312,-0.141267,Panshanger
Delph,Tame,692419,0.293,53.566913,0.089,-2.021999,Delph
Old Windsor,Thames,2703TH,0.349,51.463198,0.096,-0.569077,Old Windsor Lock
Wineham,Adur,E9130,1.35,50.957409,0.162,-0.265959,Sakeham Weir
Bridgwater,River Parrett (Tidal),52124,unknown,51.129895,unknown,-3.001618,West Quay
Buntingford,Rib,4912TH,1.6,51.946826,0.061,-0.016987,Buntingford
Culham,Thames,1799TH,0.298,51.6506,0.038,-1.267131,Culham Lock
Haweswater Reservoir,Haweswater Reservoir,761102,31.312,54.534679,21.556,-2.769772,Haweswater Reservoir
Glazebrook,Little Woolden Hall,693032,1.9,53.440813,0.378,-2.475817,Little Woolden Hall
Gloucester,Sud Brook,2666,0.457,51.85211,0.232,-2.233328,Matson Place
Moreton,Cripsey Brook,5425TH,1.5,51.739256,0.055,0.219552,Moreton
Forest Row,Medway,E1560,1.3,51.095381,0.04,0.052195,Forest Row
Thrupp,Cherwell,1465TH,1.936,51.840425,0.654,-1.30005,Thrupp
Benson,Thames,2001TH,0.309,51.617191,0.038,-1.116011,Benson Lock
Sidbury,River Sid,45209,0.494,50.717781,0.141,-3.219793,Sidbury
Huntingfield,Huntingfield Watercourse,E24819,2.7,52.318638,0,1.425054,Huntingfield
Keynsham,River Avon,531160,5.83,51.419019,4.96,-2.487954,Keynsham US
Wakefield,Ings Beck,L1352,1.27,53.680366,0.35,-1.509072,Wakefield Westgate
Lydney,River Lyd,2629,0.7,51.72971,0.131,-2.534804,Lydney
Great Mitton,Ribble,710305,2.5,53.848003,0.331,-2.424337,Henthorn
Eskdale Green,Esk (Cumbria),742006,1.88,54.36799,0.37,-3.339036,Cropple Howe
Waterfoot,Irwell,690120,0.395,53.693137,0.125,-2.257828,Holt Mill Bridge
Godney,River Sheppey,52212,0.414,51.191655,0.095,-2.719186,Fenny Castle
Gloucester,Dimore Brook,2258,0.542,51.824551,0.162,-2.297854,The Causeway
Padiham,River Calder,712223,1.5,53.800228,0.277,-2.314843,Padiham Town Centre
Langworth,Barlings Eau,E1746,2.41,53.275665,0.105,-0.402812,Langworth
Maidstone,Medway,E140,1.25,51.271553,0.234,0.518493,Maidstone
Chesterfield,River Hipper,L0233,0.82,53.232965,0.002,-1.430996,Chesterfield Park Road Bridge
Bradworthy,River Waldon,50146,0.404,50.90173,0.129,-4.392867,Bradworthy
Little Walsingham,River Stiffkey,E24313,0.53,52.891548,0.066,0.874601,Little Walsingham
Kildwick,River Aire,F1503,1.45,53.907443,0.194,-1.984735,Kildwick
Skipton,Haw Beck,L1538,1.6,53.960831,0.163,-2.011844,Skibeden Beck
Bamber Bridge,Lostock,700515,1.75,53.724643,0.063,-2.670129,Bamber Bridge
Nettlebridge,Mells River,53146,0.184,51.230768,0.011,-2.487678,Stoke Bottom Farm
Knettishall,Little Ouse,E22163,0.295,52.390173,0.054,0.871573,Knettishall
Port Isaac,Coastal Stream,49170,0.435,50.589157,0.108,-4.830228,Port Isaac
Waterhouses,River Hamps,4041,0.466,53.04899,0.119,-1.879122,Waterhouses
,,E1598,unknown,53.46088434580123,unknown,-0.4741959129944965,ElementNotMappedToAnOutstation
Newpound Common,Arun,E9900,10,51.022515,6.617,-0.477328,New Bridge
Gwithian,Red River,48186,1.09,50.229594,0.657,-5.388678,Gwithian
Bovey Tracey,River Bovey,46133,0.777,50.595603,0.416,-3.682853,Bovey Parke
Middleton-In-Teesdale,River Tees,F3505,1.8,54.620105,0.368,-2.07894,Middleton
Brampton,River Ouse,E61201,0.301,52.319854,0.075,-0.205625,Brampton Sluice
Galgate,Conder,724836,1.5,53.991743,0.11,-2.792162,Galgate
Sladesbridge,River Camel,49133,1.5,50.509303,0.058,-4.80481,Sladesbridge
Frilsham,Pang,2140TH,0.329,51.453438,0.023,-1.228555,Frilsham
Hedgehog Bridge,Witham,E1203,1.439,53.009861,0.517,-0.11602,Langrick Bridge
Cundall,River Swale,F2302,3,54.153752,0.221,-1.350739,Crakehill
Wantage,Letcombe Brook,1756TH,0.77,51.588848,0.371,-1.431205,Wantage
Hungerford,Dun,2239TH,0.172,51.414788,0.053,-1.539372,Hungerford Dun
Sedgwick,Kent,730511,2.5,54.280023,0.19,-2.755861,Sedgwick
Donnington,Lambourn,2269TH,0.316,51.410964,0.107,-1.325174,Shaw
Langport,Long Load Main Drain,52152,2.057,51.031606,0.94,-2.799018,Huish Episcopi PS
Walthamstow,Ching Brook,5378TH,2,51.603395,0.995,-0.012274,Walthamstow
Southall,Yeading Brook,3650TH,2.08,51.518702,0.115,-0.391757,"Yeading, Brookside Road"
Twickenham,Crane,3680TH,0.25,51.448604,0.018,-0.339937,Marsh Farm
Rawcliffe,Blue Beck,L2462,unknown,53.977937,unknown,-1.118128,Rawcliffe
Pilling,Broadfleet,725139,1.11,53.932062,0.244,-2.905476,"Pilling, Broadfleet"
Donyatt,River Isle,52115,0.526,50.921842,0.124,-2.940546,Donyatt
Staines,Colne,2898TH,1.8,51.437123,1.133,-0.512241,Staines Trading Estate
Polstead,River Box,E22697,0.68,52.003937,0.102,0.890968,Polstead
Beckenham,The Beck,4345TH,0.85,51.406058,0.418,-0.024366,Beckenham
Walton-On-Thames,Thames,3100TH,3.41,51.391307,3.17,-0.421424,Walton
Brentford,Brent,3892TH,1.84,51.48248,0.303,-0.312323,Brentford
Ilkley,River Wharfe,F1902,2.9,53.928888,0.09,-1.82482,Ilkley
Horrabridge,River Walkham,47118,1,50.509965,0.207,-4.098094,Horrabridge
Bridlington,North Sea,L3001,unknown,54.085154,unknown,-0.182309,Bridlington
Old Basing,Loddon,2401TH,1.2,51.278294,1.001,-1.045224,Pyotts Bridge
Peterborough,Nene,E1997,2.26,52.560077,0.911,-0.281816,Orton Sluice
Cummersdale,Caldew,765013,2.2,54.865626,0.28,-2.944447,Cummersdale
Carshalton,Wandle,4159TH,0.425,51.367034,0.047,-0.162812,Carshalton Ponds
Blackwater,Blackwater,2431TH,1.7,51.330889,1.046,-0.775604,Blackwater Bridge
Merton,Graveney,4189TH,1.8,51.421965,0.054,-0.173411,Longley Road
Barnstaple,Coney Gut,50137,0.311,51.074943,0.064,-4.050919,Portmarsh Lane
Hexham,Cockshaw Burn,023041,0.03,54.973809,-0.02,-2.105629,Hexham Tanners Row In screen
Chelmsford,River Chelmer,E22869,0.75,51.736622,0.061,0.479442,Springfield
Calgarth (Trout beck Bridge),Trout Beck,735328,0.713,54.390814,0.223,-2.931474,Calgarth (Trout beck Bridge)
Fairford,Coln,0680TH,1.05,51.709394,0.415,-1.783971,Fairford
Bishopsworth,Colliters Brook,53137,0.385,51.427707,0.012,-2.63391,Colliters Brook
Briantspuddle,River Piddle,44206,0.613,50.739761,0.173,-2.25333,Briantspuddle
Lindfield,Ouse [So],E8350,1.44,51.006255,0.032,-0.079888,Scrasebridge
Allerby,Ellen,754016,1.5,54.732405,0.24,-3.405386,Bull Gill
Abingdon,Stert,1679TH,1.7,51.684602,0.05,-1.282696,Abingdon
Haydon Bridge,River South Tyne,023004,2.7,54.976681,0.238,-2.226498,Haydon Bridge
Market Warsop,River Meden,4032,0.41,53.206134,0.15,-1.165417,Church Warsop
Milton Keynes,Ouzel,E22377,1.281,52.06301,0.119,-0.710466,Milton Keynes M1 Ultrasonic
Drewsteignton,River Teign,46124,1.052,50.695696,0.19,-3.739489,Clifford Bridge
Knaresborough,River Nidd,L2105,1.3,54.004225,0.42,-1.465969,Knaresborough
Winchelsea Beach,Brede,E6520,2.5,50.923434,0.188,0.72054,Winchelsea Strand Bridge
Boscastle,River Valency,49124,1.84,50.691075,0.469,-4.694207,Boscastle New Mills
Kingsclere,Kingsclere Brook,2275TH,0.206,51.325621,0.08,-1.249358,Kingsclere
Arundel,Arun,E9520,unknown,50.853823,unknown,-0.552755,Arundel Queen St Bridge
Mytchett,Blackwater,2427TH,1.3,51.29741,0.363,-0.739058,Farnborough
Blyth,North Sea,022999,unknown,55.127712,unknown,-1.494998,Blyth
Wareside,Ash (Hertfordshire),5080TH,0.57,51.814817,0.095,0.020302,Mardock
Throop,River Stour,43212,1.2,50.763832,0.353,-1.84203,Throop
South Cerney,Churn,0278TH,1.02,51.673897,0.345,-1.934146,South Cerney
Warwick,River Avon,2091,1.463,52.284932,0.399,-1.562658,Warwick
Coldblow,Cray,E15350,0.75,51.445998,0.03,0.158543,Hall Place
Hales Place,Great Stour,E3966,1.2,51.29566,0.106,1.088238,Vauxhall Bridge
Stamfordham,River Pont,022010,0.64,55.039714,0.086,-1.859133,Heugh Mill
Walsden,River Calder,L1209,0.38,53.690792,0.025,-2.101414,Walsden
Broughton,Irwell,690510,2.7,53.499526,0.728,-2.271756,Manchester Racecourse
Clyst Honiton,River Clyst,45130,1.361,50.733158,0.611,-3.437637,Clyst Honiton
Onibury,River Onny,2054,1.7,52.405995,0.7,-2.80328,Onibury
Toddington,River Isbourne,2648,0.53,51.999754,0.31,-1.952083,Toddington
Silvertown,Thames Tideway,0001,unknown,51.497504,unknown,0.052616,Silvertown
Clanfield,Clanfield Brook,0911TH,0.811,51.719421,0.613,-1.588977,Clanfield
Highleadon,River Leadon,2017,2,51.909034,0.181,-2.32673,Wedderburn Bridge
Swallowfield,Loddon,2420_w2TH,0.4,51.381826,0.08,-0.966655,Sheepbridge
Horley,Burstow Stream,3235TH,3.3,51.186743,1.398,-0.163694,Bonehurst Bridge
Wath,River Nidd,F2108,1.1,54.110374,0.082,-1.785817,Gouthwaite
Newburgh,Douglas,700311,1.7,53.588789,0.1,-2.773605,Parbold
Weymouth,River Wey,44109,0.35,50.653725,0.134,-2.473258,Broadwey
Stroud,Frome (MI),2513,0.857,51.753386,0.287,-2.322244,Eastington
Launton,Langford Brook (Bicester),1484TH,0.691,51.895439,0.103,-1.13585,Langford Village
Blewbury,Mill Brook,2020TH,0.187,51.573061,0.086,-1.233747,Blewbury
Weybridge,Thames,2904TH,0.281,51.382892,0.076,-0.458071,Shepperton Lock
Swaythling,Monks Brook,E12401,0.75,50.953881,0.059,-1.370394,Stoneham Lane
Whetstone,Whetstone Brook,4195,1.1,52.553447,0.088,-1.171951,Whetstone
Moreton in Marsh,Evenlode,1208TH,1,51.988876,0.095,-1.697906,Moreton
Cassington,Evenlode,1290_w1TH,0.685,51.786053,0.085,-1.351198,Cassington Weir A
Sandon,Sandon Brook,E22897,0.75,51.720457,0.035,0.539834,Sandon Bridge
Pool,River Wharfe,L2008,2.9,53.905078,0.09,-1.630095,Pool Bridge
Shipton Under Wychwood,Evenlode,1238TH,1.448,51.861678,0.563,-1.594363,Shipton
Porlock,Hawkcombe Stream,51112,0.045,51.207333,0,-3.596358,Parsons Street
Dronfield,River Drone,L0215,0.5,53.303167,0,-1.47175,Dronfield
Lamberhurst,Teise,E1890,1.5,51.1015,0.014,0.392574,Lamberhurst
Barton Seagrave,Ise,E2699,1.3,52.377799,0.076,-0.720415,Slade Brook
Darton,River Dearne,L0809,0.613,53.58418,0.289,-1.52866,Darton
Glenfield,Rothley Brook,4158,1.15,52.648317,0.76,-1.215391,Glenfield
Shalford,Tillingbourne,3079TH,0.197,51.220824,0.088,-0.569459,Shalford
Epperstone,Dover Beck,4060,0.75,53.024857,0.098,-1.028024,Lowdham
Portinscale,River Derwent,751007,1.327,54.604556,0.307,-3.159541,Portinscale
Whittonditch,Kennet,2232TH,0.41,51.436872,0,-1.577706,Knighton Side
Greatford,West Glen (To Kates Bridge),E2304,1.18,52.68874,0.045,-0.412477,Shillingthorpe
,,49152,unknown,50.47170833657138,unknown,-4.718637043590037,BODMIN CROCKWELL STREET
Roxton,River Ouse,E21657,1.04,52.166195,0.267,-0.309298,Roxton
Upavon,River Avon,43115,0.7,51.302514,0.056,-1.809882,Upavon West
Ashford in the Water,River Wye,4023,0.75,53.223665,0.267,-1.727504,Ashford in the Water
Hannington Wick,Thames,0569TH,3.761,51.663588,2.07,-1.749677,Hannington Bridge
Eagley,Eagley Brook,690450,0.386,53.613958,0.185,-2.427881,Threadfold Way
Abingdon,Thames,1503TH,0.17,51.670388,-0.25,-1.268257,Abingdon Lock
Stockton On Tees,Lustrum Beck,L3934,5.46,54.574258,3.939,-1.316493,Stockton Primrose Hill
Ashburton,River Ashburn,46115,0.372,50.5162,0.117,-3.757538,Ashburton Lower
Nunnington,River Riccal,F2581,0.44,54.215889,0.161,-0.969759,Nunnington
Northfleet,Medway,E210,unknown,51.446984,unknown,0.341367,Gravesend
Allington,Foston Beck,E4222,0.85,52.94938,0.037,-0.702125,Allington
Catcliffe,River Rother,L0303,26.118,53.390594,25.333,-1.361999,Catcliffe
Castle Bytham,West Glen (To Kates Bridge),E4482,0.99,52.755941,0.01,-0.534509,Castle Bytham
St Neot,St Neot River,49115,0.574,50.465604,0.167,-4.55955,Craigshill Wood
Northampton,Nene,E42124,1.202,52.230338,1.13,-0.897436,South Bridge
Yiewsley,Frays,2891TH,1.2,51.509078,0.74,-0.47713,Yiewsley
Milton,River Cam,E60101,0.294,52.236542,0.218,0.176925,Cambridge Baits Bite
Harraby Green Carlisle,Petteril,764010,0.705,54.879957,0.249,-2.917974,Harraby Green Business Park
Alton,Wey,3010TH,0.205,51.149557,0,-0.976568,Alton High Street
"Seaton Mill, Barepot, Workington",Derwent,753050,0.96,54.663532,0.513,-3.370199,"Seaton Mill, Barepot, Workington"
Broadland Row,Royal Military Canal Outflow Sea,E6140,0.433,50.950221,0,0.630976,Hundred House Bridge
Bishop Monkton,Bishop Monkton Beck,L2221,0.4,54.090598,0.139,-1.497502,Bishop Monkton
Tilford,Wey,3040TH,1,51.181979,0.139,-0.750222,Tilford
Upper Beeding,Adur,E9140,3.322,50.882836,0.108,-0.306828,Beeding Bridge
Stanford In The Vale,Ock,1745TH,0.454,51.632965,0.069,-1.505814,Stanford Vale
Dacre,Dacre Beck,761706,1.2,54.628797,0.3,-2.837846,Dacre Bridge
Weldon,Willow Brook,E1310,3.64,52.493886,0.003,-0.649292,Weldon Flood Storage Reservoir
Cogenhoe,Nene (N'hampton-Wollaston),E2119,0.605,52.246264,0.273,-0.779863,Cogenhoe
Morwick,River Coquet,022001,2.8,55.33398,0.27,-1.632675,Morwick
Marston Meysey,Marston Meysey Brook,0530TH,0.394,51.667039,0,-1.816893,Whetstone Bridge
Keadby,River Trent,4098,6.6,53.591975,0.612,-0.738178,Keadby
Riseley,River Kym,E24829,1.4,52.249147,0.815,-0.485347,Riseley
Brushford,River Barle,45121,0.842,51.021855,0.179,-3.53136,Brushford
Over,Swavesey Drain,E21968,1.215,52.320879,0.215,-0.002271,Webbs Hole Sluice
Dutlas,River Teme,2639,0.6,52.394857,0.024,-3.160345,Dutlas
Lanchester,Smallhope Burn,024017,1.2,54.82499,0.099,-1.744671,Lanchester Front Street
Fotheringhay,Willow Brook,E1533,0.501,52.526819,0.117,-0.428685,Fotheringhay
Clitheroe,Pimlico Brook,710315,0.301,53.877796,0.067,-2.387601,Pimlico Brook
Perranporth,Perrancombe Stream,48121,1,50.340195,0.01,-5.15746,Perrancoombe
South Norwood,Norbury Brk,4182TH,1.3,51.394765,0.958,-0.097302,Thornton Heath
Kingford,Tamar,47137,1.8,50.823657,0.06,-4.438698,Tamarstone Bridge
Ickenham,Pinn,2887TH,1.125,51.565274,0.557,-0.452775,"Ickenham, Swakeleys Road"
Tenbury Wells,River Teme,2008,4.5,52.313207,0.428,-2.591539,Tenbury
Kenwith,Kenwith Stream,50193,0.65,51.023856,0.42,-4.236897,Kenwith Castle
Gloucester,Wotton Brook,2268,2,51.85196,0.02,-2.18652,Kingscroft Road
Selby,River Ouse,L24001,3.776,53.783305,0.132,-1.057483,Selby Lock
Crudgington,River Strine,2170,0.788,52.754258,0.166,-2.534083,Crudgington
Hirst Courtney,West Bank Pond,L1821,1,53.707591,0.265,-1.056828,West Marsh Washlands
Wetheral,Eden,762505,3.36,54.890119,0.41,-2.830743,Great Corby
Wivenhoe,Essex Coast,E24323,unknown,51.852475,unknown,0.963271,Colne Barrier
Shipley,River Erewash,4186,2.8,53.003454,0.964,-1.310004,Shipley Gate
Wyre Piddle,Piddle Brook,2133,0.64,52.126787,0.116,-2.056054,Wyre Piddle
Minehead,North Somerset Coast,51103,unknown,51.213871,unknown,-3.474382,Minehead
Chesterfield,River Rother,L0206,1.071,53.233706,0.51,-1.418671,Hady Hill
Hillingdon,Yeading Brook,3635TH,2,51.541775,0.162,-0.418198,"Hillingdon, Charville Lane"
Brushford,River Taw,50119,0.504,50.845457,0.118,-3.886253,Taw Bridge
,,L3206,unknown,53.75180142323557,unknown,-0.3332078014685952,Hull High Flags
Riding Mill,River Tyne,023023,2.1,54.951725,0.329,-1.959367,Riding Mill
Great Mitton,Hodder,711610,1.9,53.855184,0.254,-2.451318,Hodder Place
Great Elm,Mells River,53119,0.502,51.240687,0.084,-2.349087,Vallis
Clavering,Stort,5112TH,1,51.965459,0.027,0.146003,Clavering
Bampton,River Batherm,45159,1.396,50.989182,0.018,-3.484134,Bampton Bridge
Christchurch,Christchurch Coast,43106,unknown,50.730338,unknown,-1.773396,Christchurch
Milford,River Sow,4014,1.986,52.791503,0.3,-2.038506,Milford
Harlow,Pishiobury Brook,5172TH,1.93,51.795404,0.016,0.134177,Pishiobury Brook
Gloucester,Horsbere Brook,2221,2,51.881479,0.338,-2.206851,Clomoney Way
Taplow,Thames,2602TH,0.25,51.532713,0,-0.699466,Boulters Lock
Staines,Ash (Surrey),3115TH,0.6,51.430935,0.371,-0.496618,Knowle Green
Portsmouth,River Calder,L12010,0.48,53.732271,0.084,-2.153507,Portsmouth Lennox Road
Ensbury,River Stour,43231,1.913,50.768235,0.322,-1.876842,Ensbury
Great Coates,Laceby Beck,E1696,0.78,53.574576,0.189,-0.108253,River Freshney Grimsby
Elvington,River Derwent,L2806,6.25,53.917969,5.467,-0.931123,Elvington Sluices
Lower Darwen,Darwen,713120,1.1,53.731625,0.304,-2.490617,Ewood
Stathe,River Parrett,52125,7.61,51.053328,4.182,-2.891431,West Sedgemoor PS
London Colney,Colne,2814TH,1.5,51.719476,0.939,-0.289861,London Colney
Bampton,Haweswater Beck,761103,1,54.536126,0.07,-2.762643,Burnbanks
Beccles,River Waveney,E23019,1.1,52.464571,0,1.564233,Beccles Quay
Stopsley,Lee (Upper),4625TH,2.1,51.896722,0.013,-0.419615,"Luton, Stockingstone Road"
Tilbury,Thames Tideway,0020,unknown,51.456735,unknown,0.334956,Tilbury
Titley Mill,Arrow,055013_TG 326,1,52.220498,0.062,-2.984666,Titley Mill
Swinford,Thames,1201TH,0.371,51.774692,0.038,-1.356854,Eynsham Lock
Dorchester,Thame,1993TH,2.085,51.641035,0.223,-1.163757,Dorchester
Hinton On The Green,River Isbourne,2036,2.65,52.064842,0.072,-1.966688,Hinton On Green
Witton Park,River Wear,024008,3.4,54.67286,0.285,-1.733251,Witton Park
Myton-On-Swale,River Swale,L2300,3.436,54.095246,0.437,-1.334833,Myton-On-Swale
Launceston,River Kensey,47128,1.2,50.639598,0.433,-4.407654,Truscott
Burtle,North Drain,52213,1.933,51.199702,1.644,-2.861707,North Drain
Shropham,Thet,E21230,1.43,52.492126,0.102,0.938899,Redbridge
Ancouts,Medlock,690715,0.438,53.481022,0.083,-2.212509,Gurney Street
Leigh Woods,River Avon,53184,1.128,51.439017,0.93,-2.62578,Ashton Vale
Salt end,Roall Dyke,L1812,unknown,53.721999,unknown,-1.149345,Roall Ings
Okehampton Camp,East Okement River,50147,0.499,50.704049,0.22,-3.974907,East Okement Farm
Wadesmill,Rib,4980TH,1.6,51.839044,0.128,-0.027533,Wadesmill
Parkend,River Lyd,2124,0.6,51.764493,0.044,-2.556805,Parkend
Iron Acton,Bristol Frome,53147,0.591,51.543699,0.141,-2.464859,Tubbs Bottom
Wallington,Wallington,E11301,1.39,50.863667,0.076,-1.166426,North Fareham weir
Old Malton,River Derwent,F2809,3.095,54.146645,0.336,-0.759757,"Malton, A64 Road Bridge"
Sydling St Nicholas,Sydling Water,44216,0.255,50.795256,0.072,-2.522871,Sydling St Nicholas
Uckfield,Uck,E8360,1.3,50.968752,0.3,0.097884,Uckfield Mill upstream
St Ives,River Stennack,48187,0.659,50.206022,0.028,-5.49846,St Ives Consols Farm
Thorpe Le Fallows,Till,E1835,2.87,53.329892,0.836,-0.644055,Squires Bridge
Titson,River Neet,49134,1.3,50.788684,0.045,-4.516349,Woolstone Mill
Lambourn,Lambourn,2251TH,1.077,51.508084,0.7,-1.530219,Lambourn
Kendal,Stock Beck,730512,0.422,54.3317,0.22,-2.736971,"Stock Beck, Jewsons Yard"
Stoke Newington,Lee,5390TH,6.1,51.567832,5.778,-0.051025,Lea Bridge
Abridge,Roding,5459TH,1.9,51.65178,0.82,0.119024,Abridge
Langport,Isle,52153,3.019,51.008129,0.917,-2.832096,Midelney
Gosberton Clough,South Forty Foot,E47061,2.83,52.849491,0,-0.275979,Dowsby Fen
Witham,River Brain,E22832,0.61,51.801923,0.041,0.634694,Guithavon Valley
Sharow,River Ure,L2203,0.89,54.144644,0.03,-1.516213,Ripon Ure Bank
Denham,Colne,2880TH,1.1,51.559236,0.803,-0.484082,Willowbank
Rothersthorpe,Wootton Brook,E4427,1.09,52.212737,0.061,-0.938853,Wootton Park
Warkworth,River Coquet,022020,0.845,55.348353,0.32,-1.608289,Warkworth
Sheffield,Porter Brook,L0410,0.3,53.376972,-0.011,-1.463457,Sheffield Station
Chiselborough,River Parrett,52116,0.628,50.92686,0.054,-2.768537,Chiselborough
Rotherham,Blackburn Brook,L0670,1.8,53.429981,0.032,-1.423463,Sheffield Blackburn
Simonsbath,River Barle,45140,0.417,51.13829,0.019,-3.758506,Simonsbath
Leighton Buzzard,Clipstone Brook,E21987,1.47,51.924207,0.022,-0.634231,Clipstone Brook
Luxulyan,Par River,48140,1.4,50.390824,0.183,-4.753487,Luxulyan
Skinningrove,Kilton Beck,L2922,5.1,54.567493,4.429,-0.898737,Skinningrove
Stroud,River Frome,2027,0.95,51.740019,0.133,-2.24687,Ebley Mill
Langbar,River Wharfe,F1903,1.87,53.940619,0.189,-1.861331,Addingham
Boxford,River Box,E21852,1.77,52.028438,0.065,0.858403,Boxford
Long Melford,Chad Brook,E22563,0.72,52.080294,0.047,0.724408,Long Melford
Plympton,Tory Brook,47119,1.16,50.401002,0.311,-4.039339,Newnham Park
Eastville,Bristol Frome,531115,0.704,51.470324,0.099,-2.566101,Eastville
Congresbury,Congresbury Yeo,52204,0.345,51.363932,0.08,-2.788918,Iwood
Mirfield,River Calder,L1307,2.5,53.671578,0,-1.697228,Ledgard Bridge
Hemel Hempstead,Bulbourne,2846TH,1.5,51.741057,0.205,-0.47337,"Hemel Hempstead, Two Waters Road"
Chapel Haddlesey,River Aire,L1803,unknown,53.728909,unknown,-1.125272,Chapel Haddlesey
Tanfield,River Team,023042,0.443,54.887182,0.158,-1.700147,Tanfield
East Cowes,Medina,E15040,unknown,50.763267,unknown,-1.296672,Cowes
